     2.11           OBSERVATION DATA    M (MIXED)           RINEX VERSION / TYPE
teqc  2009Mar23                         20150101 01:05:05UTCPGM / RUN BY / DATE
Linux 2.4.20-8|Pentium IV|gcc -static|Linux|486/DX+         COMMENT
BIT 2 OF LLI FLAGS DATA COLLECTED UNDER A/S CONDITION       COMMENT
ALGO CACS-GSD 883160 Algonquin Park ON Canada               MARKER NAME
40104M002                                                   MARKER NUMBER
OPERATOR            NRCan/GEODETIC SURVEY OF CANADA         OBSERVER / AGENCY
618-01882           TPS NET-G3A         3.5 Jul,15,2011 p2 nREC # / TYPE / VERS
303                 AOAD/M_T        NONE                    ANT # / TYPE
   918129.4000 -4346071.2000  4561977.8000                  APPROX POSITION XYZ
        0.1000        0.0000        0.0000                  ANTENNA: DELTA H/E/N
     1     1                                                WAVELENGTH FACT L1/2
     8    L1    L2    C1    C2    P2    P1    S1    S2      # / TYPES OF OBSERV
    30.0000                                                 INTERVAL
    16                                                      LEAP SECONDS
RINEXED from Topcon TPS-binary: ken.macleod@nrcan.gc.ca     COMMENT
Forced Modulo Decimation to 30 seconds                      COMMENT
 SNR is mapped to RINEX snr flag value [0-9]                COMMENT
  L1 & L2: min(max(int(snr_dBHz/6), 0), 9)                  COMMENT
teqc windowed: start @ 2015 Jan  1 00:00:00.000             COMMENT
teqc windowed: delta = 3600.000 sec                         COMMENT
pseudorange smoothing corrections not applied               COMMENT
  2015     1     1     0     0    0.0000000     GPS         TIME OF FIRST OBS
                                                            END OF HEADER
 15  1  1  0  0  0.0000000  0 20G 8G14G 3R 7R 9R16G31G16G20R24G23G29
                                G32R15R17G25R 6G22R 5G 1
 118504127.18147  92340891.71646  22550576.489                    22550574.970
  22550575.149          47.250          37.250
 114719266.06848  89391666.76746  21830329.032                    21830326.017
  21830328.144          48.750          37.250
 116644383.19547  90891733.71247  22196672.856    22196672.481    22196672.392
  22196672.589          46.250          45.000
 113971795.554 8  88644746.611 8  21290875.138    21290870.931    21290871.206
  21290874.848          50.750          48.000
 114329642.219 8  88923071.289 6  21410255.931    21410250.768    21410249.457
  21410255.530          48.750          36.000
 102892678.873 8  80027672.747 8  19261703.328    19261697.796    19261696.988
  19261702.846          52.750          51.000
 106414215.70849  82920200.04048  20249925.037    20249922.001    20249921.548
  20249924.569          54.250          51.000
 128559660.09546 100176362.31443  24464088.795                    24464088.841
  24464087.902          38.750          20.000
 124104653.56146  96704934.28143  23616323.446                    23616321.350
  23616321.840          40.250          23.250
 126899719.955 5  98699772.911 5  23730882.109    23730876.175    23730875.279
  23730879.873          35.750          33.000
 133775293.85745 104240486.82941  25456591.935                    25456588.686
  25456590.764          33.500           7.250
 127046177.54746  98997030.91545  24176081.246    24176079.537    24176078.894
  24176080.893          40.750          35.000
 111921407.29048  87211505.45147  21297916.095                    21297914.160
  21297914.740          52.500          44.000
 116945796.591 7  90957867.463 7  21884786.442    21884783.342    21884782.446
  21884785.411          45.500          44.000
 127666520.125 7  99296185.526 6  23857540.414    23857537.259    23857537.296
  23857539.759          42.000          39.000
 118539529.21347  92368501.77447  22557298.329    22557299.019    22557298.295
  22557297.403          44.500          43.000
 102701904.075 9  79879287.617 8  19246272.998    19246265.176    19246266.115
  19246273.058          56.500          50.000
 130764457.87845 101894392.39041  24883635.432                    24883631.322
  24883632.901          31.250           6.250
 117436384.187 8  91339434.449 7  21968886.348    21968882.759    21968884.750
  21968885.763          48.500          45.000
 132905208.93745 103562514.41545  25291008.790    25291010.003    25291011.270
  25291007.169          34.250          33.000
 15  1  1  0  0 30.0000000  0 19G 8G14G 3R 7R 9R16G31G16G20R24G23G29
                                G32R15R17G25R 6R 5G 1
 118431444.58048  92284255.97646  22536745.634                    22536743.294
  22536744.533          48.250          37.250
 114785741.86248  89443466.07746  21842979.052                    21842975.730
  21842977.991          48.000          37.000
 116596045.82247  90854068.26247  22187474.452    22187474.966    22187474.456
  22187474.232          47.000          45.000
 113873837.481 8  88568557.019 8  21272576.103    21272571.011    21272571.600
  21272574.472          52.250          48.000
 114238387.756 8  88852095.664 6  21393167.619    21393162.305    21393160.629
  21393166.874          49.750          36.000
 102896481.453 8  80030630.322 8  19262414.979    19262409.322    19262409.311
  19262414.313          53.250          52.000
 106431172.18948  82933412.89748  20253151.788    20253148.727    20253148.157
  20253151.378          53.750          51.000
 128437421.13246 100081111.26343  24440827.647                    24440826.470
  24440827.702          40.000          20.000
 124030336.55646  96647024.98243  23602182.225                    23602179.412
  23602180.464          40.500          23.000
 126908495.526 5  98706598.428 5  23732522.344    23732518.039    23732516.653
  23732519.048          35.000          33.000
 133674868.92945 104162233.68741  25437480.826                    25437477.415
  25437479.132          35.500           9.000
 126982736.82946  98947596.64146  24164008.388    24164007.772    24164006.089
  24164007.867          41.000          36.000
 111950239.33248  87233971.97847  21303403.044                    21303400.839
  21303401.647          51.500          44.250
 117051570.659 7  91040136.186 7  21904581.235    21904577.623    21904577.567
  21904580.249          45.750          44.000
 127586473.485 7  99233927.077 6  23842583.283    23842577.995    23842576.817
  23842582.997          42.500          38.000
 118618877.13947  92430331.32547  22572398.079    22572398.096    22572398.054
  22572397.186          44.500          43.000
 102720841.884 9  79894017.033 8  19249821.517    19249814.264    19249815.348
  19249821.915          56.500          50.000
 117559599.287 7  91435268.407 7  21991934.815    21991933.529    21991933.360
  21991935.548          47.750          45.000
 132982176.36545 103622489.00145  25305656.214    25305658.740    25305657.929
  25305655.114          34.500          34.000
