     3.05           OBSERVATION DATA    M (MIXED)           RINEX VERSION / TYPE
sbf2rin-13.4.5                          20220706 130812 UTC PGM / RUN BY / DATE
gfzrnx-1.16-8177    FILE MERGE          20220706 132211 UTC COMMENT
ESBC00DNK                                                   MARKER NAME
10118M001                                                   MARKER NUMBER
SDFE                SDFE                                    OBSERVER / AGENCY
3047937             SEPT POLARX5        5.2.0               REC # / TYPE / VERS
CR5200327016        ASH701945E_M    SCIS                    ANT # / TYPE
        0.2160        0.0000        0.0000                  ANTENNA: DELTA H/E/N
  3582105.2910   532589.7313  5232754.8054                  APPROX POSITION XYZ
C   12 C2I C6I C7I D2I D6I D7I L2I L6I L7I S2I S6I S7I      SYS / # / OBS TYPES
E   20 C1C C5Q C6C C7Q C8Q D1C D5Q D6C D7Q D8Q L1C L5Q L6C  SYS / # / OBS TYPES
       L7Q L8Q S1C S5Q S6C S7Q S8Q                          SYS / # / OBS TYPES
G   18 C1C C1W C2L C2W C5Q D1C D2L D2W D5Q L1C L2L L2W L5Q  SYS / # / OBS TYPES
       S1C S1W S2L S2W S5Q                                  SYS / # / OBS TYPES
J   12 C1C C2L C5Q D1C D2L D5Q L1C L2L L5Q S1C S2L S5Q      SYS / # / OBS TYPES
R   20 C1C C1P C2C C2P C3Q D1C D1P D2C D2P D3Q L1C L1P L2C  SYS / # / OBS TYPES
       L2P L3Q S1C S1P S2C S2P S3Q                          SYS / # / OBS TYPES
S    8 C1C C5I D1C D5I L1C L5I S1C S5I                      SYS / # / OBS TYPES
DBHZ                                                        SIGNAL STRENGTH UNIT
C L2I                                                       SYS / PHASE SHIFT
C L6I                                                       SYS / PHASE SHIFT
C L7I                                                       SYS / PHASE SHIFT
E L1C  0.00000                                              SYS / PHASE SHIFT
E L5Q  0.00000                                              SYS / PHASE SHIFT
E L6C  0.00000                                              SYS / PHASE SHIFT
E L7Q  0.00000                                              SYS / PHASE SHIFT
E L8Q  0.00000                                              SYS / PHASE SHIFT
G L1C                                                       SYS / PHASE SHIFT
G L2L  0.00000                                              SYS / PHASE SHIFT
G L2W                                                       SYS / PHASE SHIFT
G L5Q  0.00000                                              SYS / PHASE SHIFT
J L1C                                                       SYS / PHASE SHIFT
R L1C                                                       SYS / PHASE SHIFT
R L1P  0.00000                                              SYS / PHASE SHIFT
R L2C                                                       SYS / PHASE SHIFT
R L2P  0.00000                                              SYS / PHASE SHIFT
R L3Q  0.00000                                              SYS / PHASE SHIFT
S L1C                                                       SYS / PHASE SHIFT
S L5I                                                       SYS / PHASE SHIFT
J L2L  0.00000                                              SYS / PHASE SHIFT
J L5Q  0.00000                                              SYS / PHASE SHIFT
INITIAL_RINEX_VERSION: 3.04                                 COMMENT
SEPTENTRIO RECEIVERS OUTPUT ALIGNED CARRIER PHASES.         COMMENT
NO FURTHER PHASE SHIFT APPLIED IN THE RINEX ENCODER.        COMMENT
 23 R01  1 R02 -4 R03  5 R04  6 R05  1 R06 -4 R07  5 R08  6 GLONASS SLOT / FRQ #
    R09 -2 R10 -7 R11  0 R12 -1 R13 -2 R14 -7 R15  0 R16 -1 GLONASS SLOT / FRQ #
    R17  4 R18 -3 R19  3 R20  2 R21  4 R23  3 R24  2        GLONASS SLOT / FRQ #
GEODETIC                                                    MARKER TYPE
GFZRNX.NUM_EPOCHS: 0                                        COMMENT
     0                                                      # OF SATELLITES
    30.000                                                  INTERVAL
  2020     6    25     0     0    0.0000000     GPS         TIME OF FIRST OBS
  2020     6    25    23    59   30.0000000     GPS         TIME OF LAST OBS
                                                            END OF HEADER
> 2020 06 25 00 00 00.0000000  0 43
C05  40715949.461 5                  40715946.882 6        -2.196 5                        -1.633 6 212018673.07105                 163946288.27506        34.500                          38.000
C07  39491936.793 6  39491927.647 5  39491931.984 7      -484.694 6      -394.144 5      -374.896 7 205644910.73906 167103300.43705 159017680.34007        38.500          32.750          42.500
C10  38352566.929 7  38352559.892 5  38352564.245 7       246.594 7       200.415 5       190.699 7 199711909.89707 162282258.24405 154429919.85807        42.750          35.500          45.250
C12  26299450.773 6  26299444.820 5  26299448.691 6       586.982 6       477.176 5       454.065 6 136948138.73606 111281558.94405 105896986.15406        36.250          31.250          41.000
C19  23804752.822 7  23804746.558 6                      2537.169 7      2061.683 6                 123957629.80607 100725706.08106                        46.750          40.000
C20  22145206.876 8  22145197.109 7                      -325.313 8      -264.326 7                 115315936.11108  93703613.10707                        52.750          45.500
C23  23510863.108 8                                     -1962.016 8                                 122427266.79008                                        49.750
C32  24521966.313 7  24521965.909 6                     -3014.133 7     -2449.140 6                 127692344.57107 103760504.39906                        46.250          38.500
C34  27164429.269 6  27164428.989 5                      1620.898 6      1316.910 5                 141452309.88706 114941586.90505                        38.000          30.500
C37  22426185.919 8                                      1204.872 8                                 116779058.84008                                        52.250
E01  27616185.992 6  27616184.819 5  27616182.308 4  27616184.997 6  27616184.366 6     -2620.702 6     -1957.227 5     -2127.515 4     -2008.154 6     -1982.658 6 145124050.10606 108371872.76005 117795484.95904 111198966.55706 109785420.22706        37.500          32.500          28.250          40.750          40.750
E03  27055946.391 6  27055945.532 5                  27055946.711 7  27055945.690 7      2664.689 6      1989.742 5                      2041.746 7      2015.766 7 142179967.77806 106173364.68605                 108943109.41507 107558234.12507        39.000          34.250                          43.000          43.000
E05  23730317.923 8  23730316.788 7  23730312.049 6  23730317.528 8  23730316.490 8       764.306 8       570.783 7       620.333 6       585.634 8       578.192 8 124703702.22008  93122915.92107 101220495.25106  95552211.25908  94337540.66508        49.500          44.000          40.250          53.000          53.000
E09  22756243.562 8  22756242.295 6  22756238.769 6  22756242.917 8  22756241.958 8     -1851.121 8     -1382.383 6     -1502.626 6     -1418.438 8     -1400.400 8 119584910.61108  89300442.79106  97065632.48006  91630017.31408  90465229.12508        48.000          41.500          37.500          50.500          50.250
E13  27978718.264 6  27978716.335 5                  27978718.347 6  27978716.704 6      1366.608 6      1020.402 5                      1047.011 6      1033.706 6 147029158.32706 109794501.18405                 112658705.75506 111226601.04906        36.000          30.000                          40.750          40.250
E15  26889610.666 6  26889610.961 5  26889605.887 4  26889611.867 7  26889610.803 7     -1132.569 6      -845.872 5      -919.019 4      -867.743 7      -856.752 7 141305866.86906 105520617.36505 114696301.33904 108273333.21807 106896973.85307        37.750          32.750          29.500          42.000          42.000
E24  23636670.553 7  23636680.074 6  23636658.192 5  23636680.852 7  23636679.922 8      2563.967 7      1914.621 6      2081.105 5      1964.654 7      1939.659 8 124211548.36407  92755422.74406 100821011.85905  95175128.42007  93965277.65408        45.500          39.000          35.000          47.750          48.000
E31  24566160.392 7  24566159.582 6  24566154.455 6  24566160.375 8  24566159.351 8      -164.180 7      -122.619 6      -133.047 6      -125.769 8      -124.172 8 129096072.83207  96402914.19206 104785736.17306  98917781.44608  97660341.89308        47.750          41.500          37.750          50.500          50.500
G02  25847357.745 3                                                                     -3123.088 3                                                                                                                        22.000
G05  20947300.931 8  20947300.507 9  20947301.155 7  20947300.413 9                     -1037.205 8      -808.180 7      -808.209 9                 110078836.38908  85775716.72307  85775729.71809                        50.500          55.000          47.250          55.000
G07  21777182.297 8  21777181.730 8  21777181.805 7  21777181.716 8                     -1843.922 8     -1436.857 7     -1436.824 8                 114439911.63508  89173983.26807  89173970.25408                        49.000          51.750          44.750          51.750
G08  24985914.282 6  24985913.625 5  24985918.556 6  24985917.497 5  24985909.884 4      1958.974 6      1526.438 6      1526.473 5      1463.305 4 131301866.32106 102313160.46806 102313154.46205  98050086.08604        36.500          32.750          38.500          32.750          28.750
G09  24545460.880 6  24545460.330 5  24545463.548 6  24545462.948 5  24545458.453 5     -3465.631 6     -2700.368 6     -2700.489 5     -2588.158 5 128987295.99906 100509610.29906 100509612.31905  96321695.87405        38.500          33.500          38.250          33.500          33.000
G13  21695570.939 8  21695570.372 6                  21695569.941 6                      2501.209 8                      1948.995 6                 114011024.75108                  88839770.26006                        48.750          37.000                          37.000
G15  24050353.947 6  24050353.545 3  24050353.862 6  24050353.688 3                      3556.637 6      2771.508 6      2771.392 3                 126385473.46806  98482218.97306  98482204.97803                        39.250          22.250          36.500          22.250
G18  24140002.290 6  24140001.946 3  24140003.020 6  24140002.515 3  24140002.415 6      1196.887 6       932.590 6       932.636 3       893.848 6 126856581.78306  98849278.39206  98849280.39903  94730564.10806        38.000          21.250          38.500          21.250          36.500
G21  26293032.534 5  26293031.466 1                  26293031.291 1                      2019.560 5                      1573.693 1                 138170813.28605                 107665570.96101                        34.500          10.250                          10.250
G27  24755349.228 6  24755348.518 5  24755351.984 5  24755351.282 5  24755347.005 5       473.939 6       369.144 5       369.298 5       353.916 5 130090243.39306 101369032.55505 101369029.54905  97145302.03905        38.750          31.750          35.000          31.750          33.250
G28  23440614.175 6  23440613.223 3                  23440613.768 3                      3227.634 6                      2515.056 3                 123181266.58806                  95985402.98303                        40.500          23.500                          23.500
G30  20621361.127 8  20621360.184 9  20621363.448 8  20621363.021 9  20621358.355 7        90.272 8        70.321 8        70.339 9        67.470 7 108366020.64508  84441088.84208  84441080.84109  80922683.74407        51.750          57.250          50.000          57.250          46.500
R01  19307563.721 7  19307563.663 7  19307572.471 7  19307573.029 7                      -465.042 7      -465.013 7      -361.641 7      -361.715 7                 103210031.73707 103210027.73607  80274505.45707  80274512.47007                        46.250          45.750          45.000          44.750
R02  21952994.458 7  21952995.474 7  21953002.278 7  21953002.492 7                      3683.676 7      3683.626 7      2865.099 7      2865.056 7                 117145418.31107 117145413.30307  91113138.74707  91113144.74107                        46.500          45.500          44.250          44.250
R08  21367773.379 7  21367773.744 6  21367781.225 7  21367781.700 7                     -3308.695 7     -3308.690 6     -2573.516 7     -2573.467 7                 114423493.47307 114423492.49106  88996094.36207  88996106.35107                        42.000          41.250          44.500          44.250
R09  23083617.394 6  23083617.526 6  23083623.160 6  23083623.276 6  23083604.720 6     -4072.288 6     -4072.361 6     -3167.399 6     -3167.086 6     -3057.482 6 123265261.95706 123265246.97606  95873010.19806  95873015.17906  92553138.31106        40.250          40.000          40.500          40.250          38.750
R10  20294115.282 8  20294114.750 8                                                     -2205.711 8     -2205.722 8                                                 108179051.35608 108179070.35908                                                        49.750          49.750
R11  20155568.446 8  20155568.887 8  20155575.968 8  20155575.944 8                      2526.351 8      2526.375 8      1964.925 8      1964.885 8                 107705250.93608 107705261.94008  83770790.41708  83770791.40908                        50.250          49.750          48.500          48.500
R12  23716759.920 6  23716760.396 6  23716769.123 6  23716768.396 6                      4528.085 6      4528.076 6      3522.038 6      3521.825 6                 126690670.52006 126690671.53006  98537206.63106  98537226.63806                        40.000          39.500          36.000          36.000
R17  23475090.450 6  23475090.728 6  23475099.870 6  23475099.552 6                     -3111.200 6     -3111.414 6     -2419.836 6     -2419.896 6                 125619948.18906 125619963.19406  97704452.72806  97704446.71306                        38.000          37.000          38.500          38.000
R18  22840854.076 6  22840854.035 6  22840863.082 7  22840862.860 7                       -79.741 6       -79.736 6       -62.024 7       -62.000 7                 121926058.44506 121926054.43606  94831398.45807  94831404.44907                        40.750          40.000          42.750          42.750
R19                                  24133989.245 5                                                                      2323.965 5                                                                 100411554.25105                                                                        33.500
S23  39369577.519 6  39369549.461 5         3.466 6         2.493 5 206888973.73406 154494497.39905        40.500          32.250
S25  40360467.253 6                      -215.882 6                 212095300.18706                        37.000
S36  39057532.413 6  39057507.977 5         -.920 6         -.515 5 205250002.85506 153270632.78205        41.250          35.000
> 2020 06 25 00 00 30.0000000  0 43
C05  40715964.078 5                  40715960.136 6        -1.787 5                        -1.342 6 212018742.33105                 163946341.84506        34.500                          38.000
C07  39494742.507 6  39494733.249 5  39494737.411 7      -488.475 6      -397.044 5      -377.823 7 205659518.85206 167115170.70405 159028976.26407        39.000          32.750          42.500
C10  38351160.179 7  38351153.226 5  38351157.682 7       242.162 7       196.916 5       187.248 7 199704586.68007 162276307.53105 154424257.09507        42.750          35.250          45.250
C12  26296118.079 6  26296111.662 5  26296115.707 6       570.293 6       463.801 5       441.020 6 136930784.56306 111267457.25805 105883566.83206        37.000          30.000          41.250
C19  23790160.401 7  23790154.370 6                      2529.074 7      2055.086 6                 123881644.48707 100663961.79406                        47.000          40.250
C20  22147125.517 8  22147115.464 7                      -340.037 8      -276.288 7                 115325925.02708  93711729.92507                        53.000          45.500
C23  23522201.615 8                                     -1973.503 8                                 122486309.23708                                        49.750
C32  24539352.747 7  24539352.298 6                     -3021.021 7     -2454.916 6                 127782880.88307 103834072.58406                        46.250          38.500
C34  27155130.965 6  27155130.669 5                      1607.531 6      1306.527 5                 141403892.79506 114902244.02605                        37.250          30.500
C37  22419288.005 8                                      1190.351 8                                 116743140.12708                                        52.750
E01  27631168.610 6  27631166.786 5  27631164.731 4  27631168.237 6  27631166.899 6     -2627.684 6     -1962.095 5     -2132.912 4     -2013.246 6     -1987.676 6 145202784.62406 108430668.00405 117859392.85504 111259295.59206 109844982.37306        37.750          32.500          27.250          41.500          41.500
E03  27040742.707 6  27040742.124 5                  27040742.756 7  27040741.892 7      2662.482 6      1988.377 5                      2040.167 7      2014.261 7 142100071.28806 106113701.73205                 108881890.03707 107497792.95807        39.250          34.250                          43.000          43.000
E05  23725981.640 8  23725980.604 7  23725975.550 6  23725981.299 8  23725980.232 8       755.411 8       564.063 7       613.124 6       578.835 8       571.470 8 124680915.12008  93105899.59507 101201999.23906  95534751.01808  94320302.37908        49.250          43.750          40.250          53.000          52.750
E09  22766834.452 7  22766833.144 6  22766829.836 6  22766833.793 8  22766832.853 8     -1858.624 7     -1387.871 6     -1508.526 6     -1424.118 8     -1406.004 8 119640566.19007  89342003.76806  97110807.44006  91672662.49308  90507332.20508        47.750          41.250          37.500          50.250          50.250
E13  27970957.396 5  27970955.673 5                  27970957.086 6  27970955.904 6      1353.241 5      1010.635 5                      1036.848 6      1023.659 6 146988374.91905 109764046.03905                 112627456.11606 111195748.65206        35.250          30.000                          40.250          40.000
E15  26896117.363 6  26896117.647 5  26896113.136 4  26896118.817 7  26896117.582 6     -1146.481 6      -856.031 5      -930.823 4      -878.335 7      -867.176 6 141340060.77106 105546151.75405 114724056.18304 108299533.74307 106922841.32206        37.750          32.250          29.250          42.000          41.750
E24  23622060.696 7  23622070.342 6  23622048.380 5  23622071.082 8  23622070.098 7      2555.012 7      1908.070 6      2073.659 5      1957.729 8      1932.851 7 124134773.34107  92698090.75006 100758694.49105  95116300.82008  93907197.86207        45.250          38.750          35.000          48.000          47.750
E31  24567140.313 7  24567139.562 6  24567134.120 6  24567140.286 8  24567139.321 8      -178.491 7      -133.277 6      -144.697 6      -136.820 8      -135.055 8 129101222.58907  96406759.80506 104789916.19506  98921727.38008  97664237.66708        47.750          41.500          37.500          50.500          50.250
G02  25865198.942 4                                                                     -3123.813 4                                                                                                                        24.250
G05  20953278.537 8  20953278.117 9  20953278.871 7  20953278.123 9                     -1056.333 8      -823.134 7      -823.115 9                 110110249.71608  85800194.64007  85800207.63109                        50.000          54.500          47.000          54.500
G07  21787743.843 8  21787743.280 8  21787743.479 7  21787743.241 8                     -1855.519 8     -1445.843 7     -1445.854 8                 114495412.73508  89217230.87007  89217217.86508                        49.000          51.500          44.500          51.500
G08  24974771.969 5  24974771.263 4  24974776.857 6  24974775.944 4  24974769.549 5      1944.480 5      1515.384 6      1515.181 4      1452.073 5 131243317.47805 102267538.06606 102267532.06604  98006364.60005        33.250          29.750          38.500          29.750          31.250
G09  24565255.771 6  24565255.226 5  24565258.724 6  24565258.580 5  24565252.999 5     -3468.471 6     -2702.625 6     -2702.701 5     -2590.187 5 129091318.66306 100590666.91006 100590668.90805  96399375.12405        38.500          35.000          39.000          35.000          33.500
G13  21681321.163 8  21681320.605 6                  21681320.127 6                      2491.660 8                      1941.552 6                 113936141.01208                  88781419.30606                        48.750          37.000                          37.000
G15  24030062.040 6  24030061.625 3  24030062.254 6  24030062.037 3                      3552.875 6      2768.412 6      2768.485 3                 126278839.15406  98399127.34806  98399113.35003                        39.250          23.000          36.500          23.000
G18  24133224.215 6  24133223.880 3  24133225.376 6  24133224.752 3  24133224.304 6      1178.322 6       918.175 6       918.171 3       879.779 6 126820962.96206  98821523.50806  98821525.49503  94703965.68906        39.250          21.750          38.500          21.750          36.750
G21  26281534.271 5  26281533.042 1                  26281533.802 1                      2008.951 5                      1565.459 1                 138110394.24005                 107618491.18401                        32.250           6.250                           6.250
G27  24752702.731 6  24752702.052 5  24752704.523 5  24752704.291 5  24752699.686 5       454.102 6       354.065 5       353.845 5       339.210 5 130076332.02106 101358192.47905 101358189.50905  97134913.64705        38.000          31.000          35.750          31.000          33.000
G28  23422210.742 6  23422209.799 3                  23422210.077 3                      3220.565 6                      2509.525 3                 123084554.81506                  95910043.18703                        40.750          23.000                          23.000
G30  20620894.948 8  20620894.005 9  20620897.408 8  20620896.805 9  20620892.138 7        73.791 8        57.453 8        57.500 9        55.114 7 108363570.63908  84439179.74908  84439171.75009  80920854.19707        51.500          57.250          50.000          57.250          46.500
R01  19310234.334 7  19310234.939 7  19310243.325 7  19310244.300 7                      -486.261 7      -486.182 7      -378.238 7      -378.194 7                 103224310.51507 103224306.51407  80285611.18507  80285618.18007                        46.500          46.000          45.000          44.250
R02  21932306.011 7  21932306.408 7  21932313.157 7  21932313.126 7                      3677.024 7      3677.083 7      2860.030 7      2859.925 7                 117035016.76707 117035011.77307  91027270.90607  91027276.91207                        46.500          45.500          43.750          44.250
R08  21386346.319 6  21386347.031 6  21386355.062 7  21386355.264 7                     -3321.184 6     -3321.294 6     -2583.119 7     -2583.157 7                 114522953.39506 114522952.42206  89073452.05407  89073464.05407                        41.750          41.250          44.250          44.250
R09  23106516.365 6  23106516.902 6  23106523.935 6  23106522.871 6  23106504.395 6     -4079.553 6     -4079.376 6     -3172.853 6     -3172.895 6     -3063.142 6 123387544.52306 123387529.51606  95968118.82106  95968123.82306  92644954.75506        40.750          40.000          39.750          40.000          38.750
R10  20306590.314 8  20306589.853 8                                                     -2226.809 8     -2226.785 8                                                 108245548.99108 108245567.98708                                                        50.000          49.750
R11  20141445.633 8  20141446.260 8  20141453.274 8  20141453.121 8                      2505.441 8      2505.469 8      1948.690 8      1948.688 8                 107629783.84608 107629794.85508  83712093.79408  83712094.79508                        50.000          50.000          48.250          48.250
R12  23691342.318 6  23691342.410 6  23691350.947 6  23691350.392 6                      4524.470 6      4524.335 6      3518.819 6      3519.028 6                 126554892.42306 126554893.42906  98431601.47306  98431621.46106                        39.750          39.500          37.750          38.250
R17  23492580.875 6  23492580.612 6  23492589.057 6  23492589.267 6                     -3127.384 6     -3127.217 6     -2432.409 6     -2432.332 6                 125713537.01006 125713552.02006  97777244.03006  97777238.02706                        37.250          37.000          39.250          38.500
R18  22841380.568 6  22841380.108 6  22841387.724 7  22841388.034 7                      -106.640 6      -106.748 6       -83.017 7       -83.063 7                 121928865.78106 121928861.78706  94833581.97007  94833587.95807                        41.000          40.250          42.000          42.250
R19                                  24117284.500 5                                                                      2310.015 5                                                                 100342055.94305                                                                        33.500
S23  39369556.833 6  39369530.529 5         3.848 6         2.589 5 206888873.00306 154494422.09805        40.500          32.250
S25  40361723.940 6                      -215.107 6                 212101767.26506                        38.250
S36  39057539.143 6  39057513.365 5         -.539 6         -.455 5 205250032.59606 153270650.30205        41.750          35.250
