     3.03           OBSERVATION DATA    M (MIXED)           RINEX VERSION / TYPE
HEADER CHANGED BY EPN CB ON 2020-07-02                      COMMENT
TO BE CONFORM WITH THE INFORMATION IN                       COMMENT
ftp://epncb.oma.be/pub/station/log/wtzr.log                 COMMENT
                                                            COMMENT
gfzrnx-1.06-6962    FILE CONVERSION     20200625 010203 UTC COMMENT
gfzrnx-1.06-6962    FILE MERGE          20200626 012019 UTC PGM / RUN BY / DATE
  4075580.8863   931853.5784  4801567.9707                  APPROX POSITION XYZ
GR50 V4.31          BKG-GOWettzell      20200624 235942 UTC COMMENT
SNR is mapped to RINEX snr flag value [1-9]                 COMMENT
LX:     < 12dBHz -> 1; 12-17dBHz -> 2; 18-23dBHz -> 3       COMMENT
       24-29dBHz -> 4; 30-35dBHz -> 5; 36-41dBHz -> 6       COMMENT
       42-47dBHz -> 7; 48-53dBHz -> 8; >= 54dBHz -> 9       COMMENT
GR50 V4.31          BKG-GOWettzell      20200625 005942 UTC COMMENT
GR50 V4.31          BKG-GOWettzell      20200625 015942 UTC COMMENT
GR50 V4.31          BKG-GOWettzell      20200625 025942 UTC COMMENT
GR50 V4.31          BKG-GOWettzell      20200625 035942 UTC COMMENT
GR50 V4.31          BKG-GOWettzell      20200625 045942 UTC COMMENT
GR50 V4.31          BKG-GOWettzell      20200625 055942 UTC COMMENT
GR50 V4.31          BKG-GOWettzell      20200625 065942 UTC COMMENT
GR50 V4.31          BKG-GOWettzell      20200625 075942 UTC COMMENT
GR50 V4.31          BKG-GOWettzell      20200625 085942 UTC COMMENT
GR50 V4.31          BKG-GOWettzell      20200625 095942 UTC COMMENT
GR50 V4.31          BKG-GOWettzell      20200625 105942 UTC COMMENT
GR50 V4.31          BKG-GOWettzell      20200625 115942 UTC COMMENT
GR50 V4.31          BKG-GOWettzell      20200625 125942 UTC COMMENT
GR50 V4.31          BKG-GOWettzell      20200625 135942 UTC COMMENT
GR50 V4.31          BKG-GOWettzell      20200625 145942 UTC COMMENT
GR50 V4.31          BKG-GOWettzell      20200625 155942 UTC COMMENT
GR50 V4.31          BKG-GOWettzell      20200625 165942 UTC COMMENT
GR50 V4.31          BKG-GOWettzell      20200625 175942 UTC COMMENT
GR50 V4.31          BKG-GOWettzell      20200625 185942 UTC COMMENT
GR50 V4.31          BKG-GOWettzell      20200625 195942 UTC COMMENT
GR50 V4.31          BKG-GOWettzell      20200625 205942 UTC COMMENT
GR50 V4.31          BKG-GOWettzell      20200625 215942 UTC COMMENT
GR50 V4.31          BKG-GOWettzell      20200625 225942 UTC COMMENT
DBHZ                                                        SIGNAL STRENGTH UNIT
    18    18  1929     7                                    LEAP SECONDS
G L2S -0.25000                                              SYS / PHASE SHIFT
R L2P  0.25000                                              SYS / PHASE SHIFT
E L8Q -0.25000                                              SYS / PHASE SHIFT
1831551             LEICA GR50          4.31/7.403          REC # / TYPE / VERS
WTZR                                                        MARKER NAME
        0.0710        0.0000        0.0000                  ANTENNA: DELTA H/E/N
14201M010                                                   MARKER NUMBER
Automatic           BKG-GOWettzell                          OBSERVER / AGENCY
 24 R01  1 R02 -4 R03  5 R04  6 R05  1 R06 -4 R07  5 R08  6 GLONASS SLOT / FRQ #
    R09 -2 R10 -7 R11  0 R12 -1 R13 -2 R14 -7 R15  0 R16 -1 GLONASS SLOT / FRQ #
    R17  4 R18 -3 R19  3 R20  2 R21  4 R22 -3 R23  3 R24  2 GLONASS SLOT / FRQ #
 C1C  -71.940 C1P  -71.940 C2C  -71.940 C2P  -71.940        GLONASS COD/PHS/BIS
10020031            LEIAR25.R3      LEIT                    ANT # / TYPE
     0                                                      RCV CLOCK OFFS APPL
C   12 C2I C6I C7I D2I D6I D7I L2I L6I L7I S2I S6I S7I      SYS / # / OBS TYPES
E   16 C1C C5Q C7Q C8Q D1C D5Q D7Q D8Q L1C L5Q L7Q L8Q S1C  SYS / # / OBS TYPES
       S5Q S7Q S8Q                                          SYS / # / OBS TYPES
G   16 C1C C2S C2W C5Q D1C D2S D2W D5Q L1C L2S L2W L5Q S1C  SYS / # / OBS TYPES
       S2S S2W S5Q                                          SYS / # / OBS TYPES
I    4 C5A D5A L5A S5A                                      SYS / # / OBS TYPES
R   16 C1C C2C C2P C3Q D1C D2C D2P D3Q L1C L2C L2P L3Q S1C  SYS / # / OBS TYPES
       S2C S2P S3Q                                          SYS / # / OBS TYPES
S    4 C1C D1C L1C S1C                                      SYS / # / OBS TYPES
   111                                                      # OF SATELLITES
   C02  1628  1266  2215  1628  1266  2215  1155  1261  2199PRN / # OF OBS
        1628  1266  2215                                    PRN / # OF OBS
   C05  2880  2880  2880  2880  2880  2880  2880  2880  2880PRN / # OF OBS
        2880  2880  2880                                    PRN / # OF OBS
   C06   849   849   849   849   849   849   848   849   848PRN / # OF OBS
         849   849   849                                    PRN / # OF OBS
   C07   839   839   839   839   839   839   839   839   838PRN / # OF OBS
         839   839   839                                    PRN / # OF OBS
   C08   867   867   869   867   867   869   867   867   868PRN / # OF OBS
         867   867   869                                    PRN / # OF OBS
   C09  1308  1309  1310  1308  1309  1310  1308  1309  1310PRN / # OF OBS
        1308  1309  1310                                    PRN / # OF OBS
   C10  1308  1306  1308  1308  1306  1308  1306  1306  1308PRN / # OF OBS
        1308  1306  1308                                    PRN / # OF OBS
   C11  1031  1034  1037  1031  1034  1037  1029  1032  1035PRN / # OF OBS
        1031  1034  1037                                    PRN / # OF OBS
   C12   923   930   935   923   930   935   917   930   932PRN / # OF OBS
         923   930   935                                    PRN / # OF OBS
   C13  1290  1288  1287  1290  1288  1287  1287  1288  1286PRN / # OF OBS
        1290  1288  1287                                    PRN / # OF OBS
   C14   877   877   878   877   877   878   876   877   877PRN / # OF OBS
         877   877   878                                    PRN / # OF OBS
   C16   921         922   921         922   921         920PRN / # OF OBS
         921         922                                    PRN / # OF OBS
   C19  1096  1092        1096  1092        1095  1091      PRN / # OF OBS
        1096  1092                                          PRN / # OF OBS
   C20   914   898         914   898         914   898      PRN / # OF OBS
         914   898                                          PRN / # OF OBS
   C21  1242              1242              1239            PRN / # OF OBS
        1242                                                PRN / # OF OBS
   C22  1241              1241              1238            PRN / # OF OBS
        1241                                                PRN / # OF OBS
   C23   854               854               853            PRN / # OF OBS
         854                                                PRN / # OF OBS
   C24  1252              1252              1252            PRN / # OF OBS
        1252                                                PRN / # OF OBS
   C25   983               983               983            PRN / # OF OBS
         983                                                PRN / # OF OBS
   C26  1265              1265              1264            PRN / # OF OBS
        1265                                                PRN / # OF OBS
   C27  1097              1097              1097            PRN / # OF OBS
        1097                                                PRN / # OF OBS
   C28  1081              1081              1081            PRN / # OF OBS
        1081                                                PRN / # OF OBS
   C29  1002              1002               998            PRN / # OF OBS
        1002                                                PRN / # OF OBS
   C30  1064              1064              1064            PRN / # OF OBS
        1064                                                PRN / # OF OBS
   E01   704   714   712   716   704   714   712   716   704PRN / # OF OBS
         714   712   716   704   714   712   716            PRN / # OF OBS
   E02  1340  1342  1342  1346  1340  1342  1342  1346  1340PRN / # OF OBS
        1342  1342  1346  1340  1342  1342  1346            PRN / # OF OBS
   E03  1379  1382  1380  1387  1379  1382  1380  1387  1379PRN / # OF OBS
        1382  1380  1387  1379  1382  1380  1387            PRN / # OF OBS
   E04   335   338   339   381   335   338   339   381   335PRN / # OF OBS
         338   339   381   335   338   339   381            PRN / # OF OBS
   E05  1029  1039  1041  1044  1029  1039  1041  1044  1029PRN / # OF OBS
        1039  1041  1044  1029  1039  1041  1044            PRN / # OF OBS
   E07  1462  1461  1461  1471  1462  1461  1461  1471  1462PRN / # OF OBS
        1461  1461  1471  1462  1461  1461  1471            PRN / # OF OBS
   E08  1449  1448  1448  1451  1449  1448  1448  1451  1449PRN / # OF OBS
        1448  1448  1451  1449  1448  1448  1451            PRN / # OF OBS
   E09   574   583   582   585   574   583   582   585   574PRN / # OF OBS
         583   582   585   574   583   582   585            PRN / # OF OBS
   E11   989   989   988   991   989   989   988   991   989PRN / # OF OBS
         989   988   991   989   989   988   991            PRN / # OF OBS
   E12  1071  1074  1074  1076  1071  1074  1074  1076  1071PRN / # OF OBS
        1074  1074  1076  1071  1074  1074  1076            PRN / # OF OBS
   E13  1154  1166  1164  1175  1154  1166  1164  1175  1154PRN / # OF OBS
        1166  1164  1175  1154  1166  1164  1175            PRN / # OF OBS
   E14   635   636   636   636   635   636   636   636   635PRN / # OF OBS
         636   636   636   635   636   636   636            PRN / # OF OBS
   E15  1143  1149  1146  1151  1143  1149  1146  1151  1143PRN / # OF OBS
        1149  1146  1151  1143  1149  1146  1151            PRN / # OF OBS
   E18   588   600   598   604   588   600   598   604   588PRN / # OF OBS
         600   598   604   588   600   598   604            PRN / # OF OBS
   E19   623   623   623   623   623   623   623   623   623PRN / # OF OBS
         623   623   623   623   623   623   623            PRN / # OF OBS
   E20   704                     704                     704PRN / # OF OBS
                           704                              PRN / # OF OBS
   E21   960   959   961   965   960   959   961   965   960PRN / # OF OBS
         959   961   965   960   959   961   965            PRN / # OF OBS
   E24   731   737   737   746   731   737   737   746   731PRN / # OF OBS
         737   737   746   731   737   737   746            PRN / # OF OBS
   E25  1148  1167  1168  1174  1148  1167  1168  1174  1148PRN / # OF OBS
        1167  1168  1174  1148  1167  1168  1174            PRN / # OF OBS
   E26  1060  1064  1074  1075  1060  1064  1074  1075  1060PRN / # OF OBS
        1064  1074  1075  1060  1064  1074  1075            PRN / # OF OBS
   E27  1292  1296  1297  1303  1292  1296  1297  1303  1292PRN / # OF OBS
        1296  1297  1303  1292  1296  1297  1303            PRN / # OF OBS
   E30  1476  1478  1478  1482  1476  1478  1478  1482  1476PRN / # OF OBS
        1478  1478  1482  1476  1478  1478  1482            PRN / # OF OBS
   E31   601   635   609   642   601   635   609   642   601PRN / # OF OBS
         635   609   642   601   635   609   642            PRN / # OF OBS
   E33  1043  1044  1043  1061  1043  1044  1043  1061  1043PRN / # OF OBS
        1044  1043  1061  1043  1044  1043  1061            PRN / # OF OBS
   E36   903   903   902   905   903   903   902   905   903PRN / # OF OBS
         903   902   905   903   903   902   905            PRN / # OF OBS
   G01   921   920   917   935   921   920   917   935   915PRN / # OF OBS
         920   914   935   921   920   917   935            PRN / # OF OBS
   G02  1108        1103        1108        1103        1107PRN / # OF OBS
              1103        1108        1103                  PRN / # OF OBS
   G03   819   818   818   819   819   818   818   819   818PRN / # OF OBS
         818   818   819   819   818   818   819            PRN / # OF OBS
   G04   942   938   928   941   942   938   928   941   938PRN / # OF OBS
         938   928   941   942   938   928   941            PRN / # OF OBS
   G05  1091  1085  1086        1091  1085  1086        1088PRN / # OF OBS
        1085  1085        1091  1085  1086                  PRN / # OF OBS
   G06  1078  1076  1077  1079  1078  1076  1077  1079  1076PRN / # OF OBS
        1076  1076  1079  1078  1076  1077  1079            PRN / # OF OBS
   G07  1047  1045  1043        1047  1045  1043        1045PRN / # OF OBS
        1045  1043        1047  1045  1043                  PRN / # OF OBS
   G08  1050  1047  1048  1047  1050  1047  1048  1047  1044PRN / # OF OBS
        1047  1043  1047  1050  1047  1048  1047            PRN / # OF OBS
   G09   821   821   820   821   821   821   820   821   820PRN / # OF OBS
         821   820   821   821   821   820   821            PRN / # OF OBS
   G10  1073  1073  1071  1074  1073  1073  1071  1074  1071PRN / # OF OBS
        1073  1070  1074  1073  1073  1071  1074            PRN / # OF OBS
   G11   843         835         843         835         840PRN / # OF OBS
               835         843         835                  PRN / # OF OBS
   G12   814   814   814         814   814   814         814PRN / # OF OBS
         814   814         814   814   814                  PRN / # OF OBS
   G13   935         925         935         925         931PRN / # OF OBS
               925         935         925                  PRN / # OF OBS
   G14  1085        1083        1085        1083        1084PRN / # OF OBS
              1083        1085        1083                  PRN / # OF OBS
   G15  1048  1047  1045        1048  1047  1045        1046PRN / # OF OBS
        1047  1044        1048  1047  1045                  PRN / # OF OBS
   G16  1080        1078        1080        1078        1079PRN / # OF OBS
              1077        1080        1078                  PRN / # OF OBS
   G17  1100  1098  1100        1100  1098  1100        1097PRN / # OF OBS
        1098  1097        1100  1098  1100                  PRN / # OF OBS
   G18  1048  1047  1043  1048  1048  1047  1043  1048  1046PRN / # OF OBS
        1047  1043  1048  1048  1047  1043  1048            PRN / # OF OBS
   G19  1069        1062        1069        1062        1066PRN / # OF OBS
              1062        1069        1062                  PRN / # OF OBS
   G20  1069        1060        1069        1060        1067PRN / # OF OBS
              1060        1069        1060                  PRN / # OF OBS
   G21   892         873         892         873         883PRN / # OF OBS
               871         892         873                  PRN / # OF OBS
   G22   829         828         829         828         828PRN / # OF OBS
               828         829         828                  PRN / # OF OBS
   G24   866   858   862   863   866   858   862   863   858PRN / # OF OBS
         858   857   863   866   858   862   863            PRN / # OF OBS
   G25   822   822   821   822   822   822   821   822   819PRN / # OF OBS
         822   819   822   822   822   821   822            PRN / # OF OBS
   G26  1033  1033  1033  1036  1033  1033  1033  1036  1031PRN / # OF OBS
        1033  1031  1036  1033  1033  1033  1036            PRN / # OF OBS
   G27   952   951   951   957   952   951   951   957   949PRN / # OF OBS
         951   949   957   952   951   951   957            PRN / # OF OBS
   G28  1105        1093        1105        1093        1100PRN / # OF OBS
              1092        1105        1093                  PRN / # OF OBS
   G29   949   937   930         949   937   930         940PRN / # OF OBS
         937   928         949   937   930                  PRN / # OF OBS
   G30   917   913   888   925   917   913   888   925   907PRN / # OF OBS
         913   885   925   917   913   888   925            PRN / # OF OBS
   G31  1088  1084  1082        1088  1084  1082        1083PRN / # OF OBS
        1084  1079        1088  1084  1082                  PRN / # OF OBS
   G32  1080  1078  1077  1081  1080  1078  1077  1081  1078PRN / # OF OBS
        1078  1076  1081  1080  1078  1077  1081            PRN / # OF OBS
   I02  2108  2108  2091  2108                              PRN / # OF OBS
   I03  2880  2880  2880  2880                              PRN / # OF OBS
   I04   589   589   584   589                              PRN / # OF OBS
   I05   574   574   571   574                              PRN / # OF OBS
   I06  2880  2880  2880  2880                              PRN / # OF OBS
   R01  1196  1184  1191        1196  1184  1191        1194PRN / # OF OBS
        1176  1184        1196  1184  1191                  PRN / # OF OBS
   R02  1244  1240  1243        1244  1240  1243        1243PRN / # OF OBS
        1237  1239        1244  1240  1243                  PRN / # OF OBS
   R03  1077  1073  1074        1077  1073  1074        1075PRN / # OF OBS
        1073  1073        1077  1073  1074                  PRN / # OF OBS
   R04   994   994   994         994   994   994         994PRN / # OF OBS
         993   993         994   994   994                  PRN / # OF OBS
   R05   980   979   979   976   980   979   979   976   979PRN / # OF OBS
         978   978   976   980   979   979   976            PRN / # OF OBS
   R06   964                     964                     963PRN / # OF OBS
                           964                              PRN / # OF OBS
   R07   960   953   955         960   953   955         960PRN / # OF OBS
         949   953         960   953   955                  PRN / # OF OBS
   R08  1147  1143  1143        1147  1143  1143        1146PRN / # OF OBS
        1141  1142        1147  1143  1143                  PRN / # OF OBS
   R09  1024  1021  1022        1024  1021  1022        1024PRN / # OF OBS
        1021  1021        1024  1021  1022                  PRN / # OF OBS
   R10  1191                    1191                    1191PRN / # OF OBS
                          1191                              PRN / # OF OBS
   R11  1228  1224  1226        1228  1224  1226        1226PRN / # OF OBS
        1221  1223        1228  1224  1226                  PRN / # OF OBS
   R12  1244  1243  1241        1244  1243  1241        1244PRN / # OF OBS
        1240  1240        1244  1243  1241                  PRN / # OF OBS
   R13   969   968   969         969   968   969         969PRN / # OF OBS
         966   968         969   968   969                  PRN / # OF OBS
   R14   978   969   972         978   969   972         977PRN / # OF OBS
         966   967         978   969   972                  PRN / # OF OBS
   R15   979   976   977         979   976   977         979PRN / # OF OBS
         975   976         979   976   977                  PRN / # OF OBS
   R16   969   964   967         969   964   967         969PRN / # OF OBS
         963   964         969   964   967                  PRN / # OF OBS
   R17  1104  1103  1103        1104  1103  1103        1104PRN / # OF OBS
        1103  1103        1104  1103  1103                  PRN / # OF OBS
   R18  1142  1137  1137        1142  1137  1137        1139PRN / # OF OBS
        1135  1137        1142  1137  1137                  PRN / # OF OBS
   R19  1096  1096  1096        1096  1096  1096        1096PRN / # OF OBS
        1096  1096        1096  1096  1096                  PRN / # OF OBS
   R20   966   966   966         966   966   966         960PRN / # OF OBS
         963   963         966   966   966                  PRN / # OF OBS
   R21  1076  1074  1075  1073  1076  1074  1075  1073  1075PRN / # OF OBS
        1073  1073  1073  1076  1074  1075  1073            PRN / # OF OBS
   R23  1063  1055  1056        1063  1055  1056        1062PRN / # OF OBS
        1050  1053        1063  1055  1056                  PRN / # OF OBS
   R24  1055  1052  1052        1055  1052  1052        1055PRN / # OF OBS
        1052  1052        1055  1052  1052                  PRN / # OF OBS
   S23  2880  2880  2880  2880                              PRN / # OF OBS
   S26   274   274   274   274                              PRN / # OF OBS
   S36  2879  2879  2879  2879                              PRN / # OF OBS
    30.000                                                  INTERVAL
  2020     6    25     0     0    0.0000000     GPS         TIME OF FIRST OBS
  2020     6    25     0    59   30.0000000     GPS         TIME OF LAST OBS
                                                            END OF HEADER
> 2020 06 25 00 00 00.0000000  0 41
C05  39932383.278    39932377.012    39932377.974          -2.382          -1.988          -1.707   207938401.30606 168966968.17406 160791140.12706        41.850          40.700          37.700
C07  39629720.785    39629709.498    39629715.055        -567.253        -460.929        -438.660   206362385.06407 167686307.04006 159572480.73207        44.600          41.500          42.450
C10  38205413.635    38205404.916    38205411.018          96.292          78.218          74.482   198945650.80007 161659612.69207 153837410.30607        45.400          44.000          46.600
C12                  26820712.043    26820717.486                         323.184         307.636                   113487213.60305 107995915.97405                        31.700          31.900
C19  24215322.206    24215312.944                        2752.535        2236.719                   126095564.30108 102462951.58707                        48.900          45.050
C20  21969623.187    21969610.527                         177.121         144.062                   114401635.29508  92960665.41807                        52.900          46.800
C23  23430398.446                                       -2162.766                                   122008276.02008                                        52.550
E01  27843596.824    27843598.035    27843597.646    27843598.027       -2746.741       -2051.248       -2104.669       -2077.921   146319122.74548 109264306.25906 112114673.51607 110689492.06107        48.300          41.100          42.800          45.750
E03  27455495.055    27455497.598    27455496.095    27455496.892        2638.293        1970.221        2021.685        1995.926   144279617.32547 107741286.71907 110551920.75607 109146604.41207        46.850          43.050          43.650          47.100
E04  28437469.608    28437471.446    28437470.145    28437470.358       -2708.361       -2022.464       -2075.135       -2048.915   149439964.72847 111594808.00306 114505974.46306 113050393.41307        45.100          40.750          41.000          44.600
E05  23758905.337    23758907.446    23758906.494    23758906.971        1074.355         802.343         823.239         812.797   124853934.22448  93235109.94808  95667327.03809  94451220.16709        53.900          53.700          54.250          57.700
E09  22250601.597    22250603.366    22250602.452    22250602.801       -1468.823       -1096.840       -1125.486       -1111.166   116927751.51649  87316216.27608  89594022.03208  88455118.32809        54.000          52.700          52.900          56.450
E15  27388757.806    27388761.367    27388760.529    27388760.870        -981.072        -732.536        -751.630        -742.116   143928904.46947 107479396.50507 110283199.72307 108881299.29207        46.150          43.250          43.350          46.950
E24  22945178.699    22945191.596    22945190.656    22945190.940        2253.958        1683.153        1727.139        1705.161   120577733.70049  90041870.67008  92390781.97308  91216328.49309        54.000          52.000          52.100          55.700
E31  24315543.185    24315545.504    24315544.693    24315544.941        -559.245        -417.614        -428.495        -423.053   127779066.05648  95419457.92408  97908652.49908  96664054.88409        53.350          52.000          52.650          56.000
G05  20746298.836    20746297.947    20746297.286                        -485.195        -378.074        -378.074                   109022563.58108  84952654.48008  84952671.47608                        51.400          51.350          51.600
G07  21646682.004    21646680.486    21646680.137                       -1923.081       -1498.505       -1498.506                   113754129.23908  88639598.29608  88639597.28808                        51.550          49.700          51.650
G08  24919936.138    24919938.485    24919937.600    24919935.924        1534.729        1195.893        1195.894        1145.932   130955156.76507 102042987.23307 102042978.22607  97791188.67307        44.150          42.800          43.950          44.000
G09  23949741.662    23949742.881    23949742.692    23949742.817       -3188.327       -2484.411       -2484.411       -2380.833   125856794.68007  98070244.27507  98070242.27307  93983997.02108        46.300          45.250          46.100          48.350
G13  21874630.137                    21874627.993                        2541.608                        1980.475                   114951984.56808                  89572975.81607                        52.550                          44.700
G15  24398135.073    24398134.096    24398133.525                        3488.382        2718.220        2718.221                   128213071.40307  99906283.26106  99906289.27007                        44.400          41.500          42.700
G18  24735868.666    24735868.109    24735867.652    24735871.118        1295.303        1009.326        1009.327         967.386   129987870.46207 101289245.32507 101289248.33406  97068872.40207        44.750          42.200          38.700          43.550
G27  25060678.271    25060678.444    25060677.980    25060678.356         102.797          80.104          80.104          76.778   131694751.51807 102619291.56706 102619290.56507  98343486.37707        44.350          40.400          44.650          44.700
G28  22601016.337                    22601013.967                        3002.707                        2339.773                   118769148.27508                  92547388.79906                        48.350                          41.600
G30  20373961.173    20373962.809    20373962.065    20373961.706        -136.758        -106.565        -106.565        -102.119   107065925.60608  83428005.06408  83428008.06408  79951844.58809        52.200          53.250          52.300          56.400
I02  37467525.896         341.100   147030673.23407        42.950
I03  41391075.302         -45.608   162427484.86906        39.600
I04  41158553.402        -328.383   161515025.57706        37.700
I06  38262871.254          27.019   150151726.90906        41.100
R01  19144830.659    19144832.577    19144833.443                         217.938         169.509         169.509                   102340135.05908  79597904.33107  79597904.33407                        50.400          45.400          44.500
R02  22446700.657    22446702.074    22446702.003                        3831.586        2980.123        2980.123                   119779901.50908  93162165.12407  93162161.11507                        51.300          43.400          43.350
R08  20704959.792    20704959.464    20704959.467                       -2816.843       -2190.878       -2190.878                   110874158.04808  86235472.45408  86235469.45408                        50.100          48.650          48.050
R09  23329902.163    23329902.977    23329902.896                       -4139.448       -3219.574       -3219.574                   124580429.33607  96895897.82207  96895909.80906                        46.250          42.300          41.400
R10  20312102.170                                                       -2609.315                                                   108274967.53208                                                        50.450
R11  19669600.714    19669602.068    19669602.097                        2000.867        1556.229        1556.229                   105108389.24908  81750977.09608  81750982.09308                        53.650          50.400          49.850
R12  23061722.957    23061725.211    23061725.340                        4312.547        3354.206        3354.206                   123191601.55508  95815684.24407  95815685.23407                        49.150          44.200          43.200
R17  23899124.553    23899125.190    23899125.471                       -2860.224       -2224.620       -2224.621                   127889043.38807  99469253.56906  99469256.56906                        44.650          38.850          38.300
R18  23431131.596    23431133.767    23431133.567                        -143.616        -111.700        -111.700                   125076981.29007  97282110.09906  97282110.08706                        46.800          40.250          39.900
R19  24479864.003    24479864.610    24479863.995                        2673.926        2079.722        2079.722                   130950763.83606 101850595.64206 101850594.64806                        37.000          36.650          36.600
S23  38542860.388           3.137   202544511.07808        49.150
S36  38338991.064          -1.361   201474094.75908        48.600
> 2020 06 25 00 00 30.0000000  0 42
C05  39932395.730    39932389.478    39932390.431          -1.901          -1.731          -1.353   207938466.22906 168967020.93606 160791190.31906        41.900          41.650          38.550
C07  39632998.653    39632987.203    39632992.765        -570.605        -463.729        -441.170   206379453.46807 167700176.53207 159585679.11707        44.400          42.100          42.800
C10  38204870.825    38204862.160    38204868.273          91.936          74.732          71.173   198942824.46307 161657316.06807 153835224.81807        45.550          44.750          47.100
C12                  26818465.757    26818471.242                         309.878         295.530                   113477709.47404 107986871.65405                        28.300          31.050
C19  24199482.219    24199472.949                        2746.200        2231.518                   126013082.07908 102395928.02707                        49.350          45.850
C20  21968643.624    21968630.798                         162.683         132.186                   114396534.02508  92956520.22707                        52.700          47.650
C23  23442885.902                                       -2172.385                                   122073301.55308                                        52.800
E01  27859293.172    27859294.155    27859294.121    27859294.056       -2752.275       -2055.075       -2108.842       -2082.080   146401607.15747 109325901.74706 112177875.82907 110751890.96807        47.050          41.000          43.150          44.950
E03  27440434.320    27440436.414    27440435.309    27440436.298        2637.786        1969.740        2021.212        1995.535   144200472.34947 107682184.97307 110491277.23207 109086731.77107        47.350          42.950          44.850          46.950
E04  28452936.352    28452938.107    28452936.559    28452937.025       -2710.403       -2023.791       -2076.821       -2050.381   149521242.60247 111655502.51506 114568252.34006 113111879.60407        45.750          40.350          40.500          43.400
E05  23752792.936    23752794.925    23752794.090    23752794.533        1066.928         796.700         817.514         807.136   124821813.15748  93211123.43708  95642714.78809  94426920.78409        53.950          53.250          54.900          57.000
E09  22259009.478    22259011.267    22259010.116    22259010.693       -1476.825       -1102.781       -1131.576       -1117.172   116971935.09749  87349210.50108  89627876.97908  88488542.91309        54.350          52.450          53.450          55.900
E15  27394396.298    27394399.656    27394398.681    27394399.510        -994.493        -742.785        -761.989        -752.345   143958535.01647 107501523.24607 110305903.66907 108903714.62607        46.300          42.400          44.000          46.250
E24  22932340.103    22932353.013    22932351.956    22932352.302        2243.730        1675.535        1719.239        1697.371   120510266.63548  89991489.43408  92339086.44308  91165290.11209        53.400          51.050          52.750          54.900
E31  24318774.933    24318777.172    24318776.351    24318776.641        -572.952        -427.900        -439.082        -433.476   127796048.76948  95432139.82208  97921665.23008  96676902.19809        53.200          51.650          53.200          55.400
G05  20749124.891    20749124.047    20749123.408                        -504.978        -393.490        -393.490                   109037414.87808  84964226.91908  84964243.91508                        50.550          50.600          50.700
G07  21657686.855    21657685.375    21657685.023                       -1932.498       -1505.842       -1505.842                   113811960.19508  88684661.37708  88684660.37008                        50.850          48.650          50.900
G08  24911216.967    24911219.687    24911218.951    24911217.204        1519.842        1184.294        1184.295        1134.897   130909337.97807 102007284.34507 102007275.34507  97756973.40007        43.950          42.750          43.850          45.550
G09  23967955.052    23967956.337    23967956.036    23967956.264       -3192.591       -2487.734       -2487.733       -2384.041   125952506.52407  98144824.90307  98144822.90507  94055470.11808        47.200          43.900          47.250          48.000
G13  21860140.760                    21860138.455                        2534.396                        1974.855                   114875841.68608                  89513643.70307                        52.600                          43.600
G15  24378225.282    24378224.521    24378224.005                        3486.275        2716.581        2716.581                   128108445.92107  99824756.96706  99824762.98306                        45.000          41.500          41.850
G18  24728522.426    24728521.903    24728521.634    24728524.971        1277.970         995.821         995.821         954.291   129949266.38007 101259164.24506 101259167.24306  97040044.69307        44.500          41.250          37.100          43.850
G27  25060146.007    25060146.054    25060145.533    25060145.852          83.878          65.359          65.360          62.444   131691954.00307 102617111.67506 102617110.67007  98341397.33907        43.900          39.200          43.200          44.600
G28  22583901.404                    22583899.376                        2993.080                        2332.271                   118679209.89208                  92477306.95906                        48.900                          41.350
G30  20374784.361    20374785.979    20374785.185    20374784.861        -151.748        -118.245        -118.245        -113.287   107070251.62408  83431375.99308  83431378.99008  79955075.05709        52.350          52.250          52.450          56.000
I02  37464923.690         339.651   147020461.80907        42.350
I03  41391423.855         -45.455   162428852.92306        39.750
I04  41161066.870        -329.426   161524887.98506        37.550
I06  38262664.596          26.970   150150916.08306        40.800
R01  19143665.993    19143667.645    19143668.457                         197.192         153.372         153.372                   102333907.66508  79593060.80107  79593060.80307                        50.900          45.000          44.300
R02  22425168.793    22425170.146    22425170.201                        3828.026        2977.355        2977.356                   119665003.68508  93072800.17607  93072796.17807                        51.850          44.250          43.550
R08  20720782.608    20720782.178    20720782.136                       -2831.831       -2202.535       -2202.534                   110958887.57108  86301373.19808  86301370.19908                        50.500          48.550          48.050
R09  23353169.037    23353169.606    23353169.539                       -4143.685       -3222.869       -3222.867                   124704672.83207  96992531.62206  96992543.62306                        47.800          41.900          40.600
R10  20326837.592                                                       -2627.312                                                   108353515.92308                                                        50.500
R11  19658429.487    19658430.615    19658430.669                        1978.816        1539.080        1539.081                   105048692.40708  81704546.23408  81704551.23108                        53.200          50.450          49.950
R12  23037520.892    23037523.188    23037523.291                        4306.270        3349.322        3349.321                   123062318.21608  95715130.57307  95715131.56507                        49.200          42.800          42.100
R17  23915202.478    23915203.069    23915203.404                       -2875.599       -2236.579       -2236.578                   127975080.24807  99536171.12306  99536174.13506                        43.750          39.350          38.750
R18  23432011.035    23432012.754    23432013.102                        -169.254        -131.643        -131.643                   125081673.53507  97285759.64506  97285759.63206                        46.850          41.300          40.500
R19  24464915.857    24464916.293    24464916.224                        2656.357        2066.051        2066.055                   130870801.20406 101788402.49906 101788401.50706                        37.800          37.950          37.350
S23  38542841.142           3.312   202544412.31808        49.150
S26  40179942.048          67.496   211147018.59906        40.800
S36  38338995.706           -.704   201474122.41308        48.600
> 2020 06 25 00 01 00.0000000  0 42
C05  39932407.616    39932401.368    39932402.321          -2.288          -1.560          -1.509   207938528.19107 168967071.27006 160791238.24206        42.000          40.950          38.700
C07  39636297.200    39636285.744    39636291.416        -574.346        -466.781        -444.073   206396630.04807 167714133.91106 159598961.12707        44.000          41.350          43.200
C10  38204354.344    38204345.629    38204351.824          87.334          70.873          67.521   198940134.98107 161655130.65507 153833145.15507        45.300          44.250          47.300
C19  24183679.739    24183670.827                        2739.500        2226.143                   125930795.82208 102329063.71707                        49.300          45.600
C20  21967748.993    21967736.135                         147.771         120.058                   114391874.98908  92952734.38107                        52.750          47.050
C23  23455429.804                                       -2182.319                                   122138621.29108                                        52.700
E01  27875020.681    27875021.648    27875021.682    27875021.551       -2757.841       -2059.426       -2113.160       -2086.226   146484255.90047 109387619.96206 112241204.07507 110814414.18807        46.550          40.800          42.300          44.400
E03  27425378.164    27425380.268    27425379.754    27425380.421        2636.746        1969.156        2020.421        1994.824   144121352.36847 107623101.89607 110430652.89207 109026878.06507        46.700          43.650          45.450          47.400
E04  28468415.037    28468416.576    28468414.697    28468415.962       -2712.531       -2025.715       -2078.464       -2052.001   149602583.06647 111716243.81006 114630578.20006 113173413.16807        45.300          40.300          41.650          43.700
E05  23746724.849    23746726.655    23746725.964    23746726.364        1059.009         790.792         811.454         801.108   124789924.73649  93187310.65408  95618280.80209  94402797.40309        54.050          53.400          55.100          57.100
E09  22267463.830    22267465.420    22267464.245    22267464.778       -1485.043       -1108.899       -1137.804       -1123.371   117016361.47249  87382386.04308  89661917.97008  88522151.18109        54.750          52.700          53.900          56.100
E15  27400112.991    27400116.532    27400115.668    27400116.048       -1008.351        -752.939        -772.573        -762.756   143988576.65047 107523956.92607 110328922.58107 108926440.92607        47.250          43.400          44.750          46.850
E24  22919561.332    22919574.021    22919573.232    22919573.590        2233.014        1667.628        1711.076        1689.356   120443113.80748  89941342.83508  92287631.68208  91114489.43309        53.500          51.600          53.250          55.250
E25  28547538.208    28547541.429    28547539.585    28547540.728        3265.031        2438.396        2501.959        2470.232   150018325.90947 112026683.56306 114949113.01706 113487899.96007        43.700          38.750          39.500          42.100
E31  24322086.072    24322088.314    24322087.410    24322087.787        -587.053        -438.356        -449.762        -444.076   127813448.96948  95445133.48208  97934997.85008  96690065.34009        53.000          51.900          53.400          55.450
G05  20752065.269    20752064.467    20752063.847                        -525.318        -409.338        -409.338                   109052866.95708  84976267.50308  84976284.49508                        50.850          51.150          50.650
G07  21668747.074    21668745.626    21668745.283                       -1942.400       -1513.559       -1513.559                   113870082.17108  88729951.21608  88729950.21008                        51.400          49.400          51.150
G08  24902584.009    24902586.410    24902585.590    24902584.490        1504.714        1172.503        1172.505        1123.594   130863970.34707 101971932.96606 101971923.97007  97723095.04707        43.700          41.100          43.700          44.950
G09  23986193.461    23986194.700    23986194.416    23986194.534       -3197.079       -2491.234       -2491.233       -2387.422   126048349.20307  98219507.50007  98219505.50207  94127040.93807        46.100          45.550          46.200          47.950
G13  21845692.927                    21845690.846                        2526.980                        1969.076                   114799918.92008                  89454483.12107                        51.850                          44.950
G15  24358328.154    24358327.443    24358326.975                        3484.527        2715.216        2715.216                   128003885.89107  99743281.65706  99743287.66106                        46.300          41.550          40.900
G18  24721277.432    24721277.050    24721276.787    24721280.073        1259.946         981.776         981.774         940.930   129911194.51407 101229497.87807 101229500.85606  97011614.42207        44.250          43.150          38.350          43.750
G27  25059724.130    25059724.138    25059723.493    25059724.109          64.094          49.941          49.942          47.895   131689737.52507 102615384.55206 102615383.54607  98339742.15107        44.100          38.850          44.100          44.800
G28  22566842.578                    22566840.594                        2983.116                        2324.506                   118589564.01508                  92407453.04106                        49.800                          41.900
G30  20375693.568    20375695.062    20375694.320    20375693.924        -166.792        -129.968        -129.968        -124.583   107075028.94108  83435098.58208  83435101.58108  79958642.54309        52.550          53.200          52.450          56.200
I02  37462333.198         338.020   147010296.67507        42.600
I03  41391771.995         -45.600   162430219.45306        39.850
I04  41163588.968        -330.579   161534784.29206        37.250
I06  38262458.754          26.788   150150108.55706        41.000
R01  19142618.865    19142620.439    19142621.214                         175.967         136.863         136.863                   102328309.74508  79588706.87807  79588706.88107                        50.200          45.550          44.700
R02  22403658.486    22403659.920    22403659.938                        3824.016        2974.234        2974.234                   119550221.04008  92983524.79807  92983520.80607                        51.550          44.700          43.850
R08  20736690.620    20736690.367    20736690.292                       -2847.323       -2214.585       -2214.585                   111044074.97708  86367630.05008  86367627.05308                        49.550          48.400          48.100
R09  23376461.436    23376461.598    23376461.601                       -4148.229       -3226.401       -3226.401                   124829050.96407  97089270.19307  97089282.19806                        47.150          42.750          41.300
R10  20341674.920                                                       -2645.558                                                   108432607.83008                                                        49.750
R11  19647382.935    19647384.043    19647384.071                        1956.352        1521.608        1521.608                   104989663.34308  81658634.76508  81658639.76108                        53.550          50.550          50.000
R12  23013355.326    23013357.673    23013357.933                        4299.513        3344.068        3344.068                   122933230.99708  95614729.45207  95614730.44707                        48.250          43.150          42.250
R17  23931367.535    23931368.053    23931368.271                       -2891.221       -2248.727       -2248.725                   128061582.86407  99603450.96606  99603453.96206                        45.900          40.350          39.350
R18  23433035.596    23433037.373    23433037.780                        -195.341        -151.931        -151.931                   125087142.58107  97290013.34106  97290013.33506                        46.250          41.550          40.650
R19  24450068.582    24450069.331    24450069.125                        2638.456        2052.132        2052.133                   130791378.34406 101726629.22306 101726628.21606                        37.050          37.850          36.800
S23  38542822.232           3.244   202544314.16208        49.000
S26  40179558.275          67.156   211144987.86406        41.300
S36  38339000.511           -.826   201474147.93408        48.550
> 2020 06 25 00 01 30.0000000  0 41
C05  39932418.914    39932412.708    39932413.624          -1.718          -1.442          -1.436   207938587.14506 168967119.19306 160791283.85406        41.900          40.850          39.200
C07  39639616.406    39639604.868    39639610.663        -577.989        -469.514        -446.893   206413914.47807 167728178.91806 159612326.55107        44.400          41.000          43.250
C10  38203864.060    38203855.299    38203861.579          82.977          67.370          64.123   198937582.05107 161653056.19907 153831171.08107        45.100          43.900          47.700
C19  24167915.441    24167906.701                        2733.097        2220.781                   125848707.33608 102262360.12207                        49.300          45.650
C20  21966939.401    21966926.514                         133.225         108.236                   114387658.91408  92949308.46907                        52.400          46.900
C23  23468029.950                                       -2191.870                                   122204233.43408                                        52.750
E01  27890779.168    27890780.456    27890780.142    27890780.032       -2763.108       -2063.257       -2117.040       -2090.110   146567067.29847 109449459.60306 112304656.94107 110877060.44607        47.050          41.950          42.700          44.950
E03  27410327.102    27410329.191    27410328.800    27410329.408        2636.270        1968.473        2019.955        1994.182   144042258.14848 107564038.07107 110370048.25407 108967043.83907        48.250          44.300          44.900          47.400
E04  28483905.207    28483906.743    28483905.218    28483906.154       -2714.450       -2026.921       -2079.705       -2053.270   149683985.58547 111777031.42106 114692951.54706 113234993.65407        45.300          40.100          41.800          43.550
E05  23740701.157    23740702.866    23740702.232    23740702.616        1051.400         785.082         805.553         795.308   124758269.80449  93163672.23808  95594025.73309  94378850.65809        54.300          53.700          55.600          57.350
E09  22275964.164    22275965.721    22275964.664    22275964.995       -1492.924       -1114.882       -1143.963       -1129.398   117061030.56648  87415742.83808  89696144.93609  88555943.05909        53.800          52.900          54.450          56.400
E15  27405907.863    27405911.298    27405910.431    27405910.891       -1021.798        -763.048        -782.971        -773.040   144019028.21747 107546696.77507 110352255.65107 108949477.38707        46.600          42.950          45.000          46.800
E24  22906842.565    22906855.439    22906854.497    22906854.867        2222.751        1659.828        1703.102        1681.465   120376276.37248  89891431.78308  92236418.60008  91063927.36409        53.300          52.100          53.450          55.450
E25  28528897.915    28528900.892    28528899.781    28528900.001        3265.072        2438.243        2501.799        2470.113   149920369.62747 111953534.40506 114874055.60306 113413796.67307        43.350          39.850          41.700          43.550
E31  24325476.379    24325478.797    24325477.819    24325478.216        -600.770        -448.662        -460.303        -454.464   127831265.83548  95458438.29408  97948649.74408  96703543.69309        52.900          52.100          53.850          55.750
G05  20755120.054    20755119.246    20755118.551                        -545.124        -424.772        -424.772                   109068919.76008  84988776.16808  84988793.16308                        50.950          51.000          50.950
G07  21679862.479    21679861.043    21679860.706                       -1951.774       -1520.864       -1520.864                   113928493.94408  88775466.88008  88775465.87208                        51.800          49.150          51.950
G08  24894037.089    24894039.535    24894038.551    24894036.942        1489.381        1160.555        1160.555        1112.356   130819056.53707 101936935.23207 101936926.23207  97689555.51607        43.850          43.150          43.550          44.600
G09  24004456.505    24004457.728    24004457.438    24004457.421       -3200.880       -2494.193       -2494.193       -2390.453   126144321.90007  98294291.41407  98294289.40707  94198708.83707        46.050          45.400          45.850          47.800
G13  21831287.285                    21831285.454                        2519.756                        1963.447                   114724217.78408                  89395495.23607                        51.950                          44.600
G15  24338443.654    24338442.870    24338442.333                        3482.064        2713.297        2713.298                   127899392.60707  99661858.34306  99661864.33906                        45.200          40.050          40.750
G18  24714134.126    24714133.798    24714133.457    24714136.860        1242.328         968.046         968.046         927.834   129873655.98607 101200247.05307 101200250.06706  96983582.40507        43.800          43.200          40.900          43.950
G27  25059412.961    25059412.997    25059412.390    25059413.020          44.875          34.965          34.966          33.449   131688102.42007 102614110.40606 102614109.41507  98338521.12407        45.200          39.700          45.750          45.100
G28  22549839.832                    22549837.643                        2973.441                        2316.967                   118500213.14608                  92337828.98406                        48.450                          41.250
G30  20376688.601    20376689.941    20376689.268    20376688.720        -181.646        -141.541        -141.541        -135.663   107080256.85208  83439172.28708  83439175.28508  79962546.51409        52.550          53.000          52.450          56.450
I02  37459754.506         336.541   147000178.04707        42.800
I03  41392119.762         -45.478   162431584.41906        39.950
I04  41166119.476        -331.522   161544714.39806        37.250
I06  38262253.895          26.838   150149304.33606        41.300
R01  19141689.184    19141691.311    19141692.067                         155.045         120.591         120.590                   102323342.74108  79584843.64407  79584843.64507                        48.850          45.000          44.050
R02  22382170.140    22382171.801    22382171.924                        3820.242        2971.303        2971.301                   119435555.75908  92894340.74907  92894336.74207                        50.700          43.200          43.300
R08  20752683.829    20752683.856    20752683.825                       -2862.321       -2226.252       -2226.251                   111129719.09308  86434242.10308  86434239.10507                        49.800          48.100          47.550
R09  23399777.933    23399778.391    23399778.375                       -4152.458       -3229.689       -3229.690                   124953560.56207  97186110.95406  97186122.94806                        47.050          41.600          40.550
R10  20356613.640                                                       -2663.262                                                   108512239.67908                                                        49.550
R11  19636461.498    19636462.790    19636462.815                        1934.267        1504.431        1504.431                   104931303.55008  81613243.82708  81613248.82508                        52.900          50.350          49.800
R12  22989227.339    22989229.369    22989229.558                        4293.068        3339.054        3339.054                   122804342.63908  95514483.01507  95514484.01306                        48.400          42.350          41.850
R17  23947618.940    23947619.703    23947619.851                       -2906.299       -2260.456       -2260.458                   128148547.07007  99671089.74506  99671092.73506                        45.700          40.500          40.150
R18  23434205.304    23434207.232    23434207.431                        -220.991        -171.880        -171.882                   125093387.72307  97294870.67706  97294870.67606                        45.550          41.050          40.350
R19  24435322.753    24435323.403    24435323.217                        2620.609        2038.251        2038.252                   130712499.01605 101665278.62206 101665277.62706                        35.550          36.950          36.500
S23  38542803.267           3.411   202544215.24108        49.250
S36  38339004.763           -.485   201474168.52708        48.750
> 2020 06 25 00 02 00.0000000  0 41
C05  39932429.681    39932423.444    39932424.436          -1.724          -1.308          -1.114   207938643.10706 168967164.65906 160791327.10706        41.650          41.650          38.350
C07  39642956.334    39642944.769    39642950.480        -581.775        -472.503        -449.593   206431306.32007 167742311.21006 159625775.03507        44.100          41.550          42.250
C10  38203399.976    38203391.164    38203397.507          78.367          63.756          60.622   198935165.50207 161651092.55307 153829302.45007        45.200          44.700          46.850
C19  24152189.620    24152180.757                        2726.390        2215.434                   125766818.47508 102195818.72607                        50.100          45.900
C20  21966214.917    21966202.029                         118.540          96.271                   114383886.45808  92946243.04007                        52.700          47.550
C23  23480685.907                                       -2201.532                                   122270136.18708                                        52.500
E01  27906568.343    27906569.686    27906568.903    27906569.394       -2768.271       -2067.260       -2121.300       -2094.221   146650039.61847 109511419.45806 112368233.16106 110939828.47807        47.550          41.850          41.750          44.350
E03  27395281.228    27395283.247    27395282.508    27395283.151        2635.099        1967.830        2019.176        1993.499   143963190.40648 107504993.99907 110309463.88807 108907229.61707        48.000          44.850          44.000          47.000
E04  28499407.401    28499408.986    28499407.424    28499408.130       -2716.265       -2028.413       -2081.294       -2054.874   149765449.73847 111837865.07206 114755372.15106 113296620.79107        46.550          41.150          41.400          43.850
E05  23734722.105    23734723.728    23734723.093    23734723.477        1043.583         779.278         799.605         789.446   124726849.26249  93140208.84908  95569950.25209  94355081.22409        54.300          53.850          54.800          56.850
E09  22284510.158    22284512.163    22284511.051    22284511.413       -1500.976       -1120.872       -1150.104       -1135.475   117105942.34448  87449280.83008  89730557.83608  88589918.50609        53.300          53.000          53.400          55.750
E15  27411780.627    27411783.564    27411783.121    27411783.485       -1035.265        -773.026        -793.293        -783.145   144049888.72847 107569741.97307 110375902.02707 108972823.17307        46.950          42.750          44.950          46.400
E24  22894184.152    22894196.936    22894195.728    22894196.305        2212.135        1651.937        1695.022        1673.475   120309755.57548  89841757.16908  92185448.11608  91013604.81409        53.800          51.950          52.700          54.850
E25  28510258.315    28510260.937    28510260.441    28510260.325        3265.164        2438.272        2501.809        2470.083   149822417.48647 111880388.33506 114799001.37507 113339696.52507        44.050          40.550          42.350          43.950
E31  24328945.857    24328948.404    24328947.384    24328947.794        -614.601        -458.973        -470.920        -464.962   127849498.58548  95472053.66808  97962620.30108  96717336.66009        53.100          52.250          53.050          55.150
G05  20758289.033    20758288.078    20758287.381                        -565.031        -440.284        -440.284                   109085572.07208  85001752.00908  85001769.00008                        51.350          50.750          51.400
G07  21691032.754    21691031.283    21691030.944                       -1961.302       -1528.288       -1528.287                   113987194.01408  88821207.18008  88821206.17708                        51.800          48.750          51.600
