     3.04           OBSERVATION DATA    M (MIXED)           RINEX VERSION / TYPE
START OF RINEX header check by ROB      20260311 095854 UTC COMMENT
 with respect to                                            COMMENT
 https://gnss-metadata.eu/v1/sitelog/exportlog?id=WTZZ00DEU COMMENT
RINEX file downloaded from BKG                              COMMENT
RINEX header corrections                                    COMMENT
 MARKER NAME   WTZZ                 -> WTZZ00DEU            COMMENT
 REC #         1ZAHJWR29YJ3L0QDSPVJ -> 02911                COMMENT
END OF RINEX header check by ROB                            COMMENT
MAKERINEX 2.0.46262 BKG/GOWETTZELL      2020-06-26 00:13    PGM / RUN BY / DATE
WTZZ00DEU                                                   MARKER NAME
14201M014                                                   MARKER NUMBER
AUTOMATIC           BKG/GOWETTZELL                          OBSERVER / AGENCY
02911               JAVAD TRE_3 DELTA   3.7.9 DEC,30,2019   REC # / TYPE / VERS
10240011            LEIAR25.R3      LEIT                    ANT # / TYPE
  4075578.4000   931852.7500  4801569.9800                  APPROX POSITION XYZ
         .2840         .0000         .0000                  ANTENNA: DELTA H/E/N
G   24 C1C C1W C1X C2W C2X C5X L1C L1W L1X L2W L2X L5X D1C  SYS / # / OBS TYPES
       D1W D1X D2W D2X D5X S1C S1W S1X S2W S2X S5X          SYS / # / OBS TYPES
R   20 C1C C1P C2C C2P C3X L1C L1P L2C L2P L3X D1C D1P D2C  SYS / # / OBS TYPES
       D2P D3X S1C S1P S2C S2P S3X                          SYS / # / OBS TYPES
E   20 C1X C5X C6X C7X C8X L1X L5X L6X L7X L8X D1X D5X D6X  SYS / # / OBS TYPES
       D7X D8X S1X S5X S6X S7X S8X                          SYS / # / OBS TYPES
S    8 C1C C5I L1C L5I D1C D5I S1C S5I                      SYS / # / OBS TYPES
C   28 C1X C2I C5X C6I C7I C7Z C8X L1X L2I L5X L6I L7I L7Z  SYS / # / OBS TYPES
       L8X D1X D2I D5X D6I D7I D7Z D8X S1X S2I S5X S6I S7I  SYS / # / OBS TYPES
       S7Z S8X                                              SYS / # / OBS TYPES
I    4 C5A L5A D5A S5A                                      SYS / # / OBS TYPES
G L1C   .00000                                              SYS / PHASE SHIFT
G L1W  -.25000                                              SYS / PHASE SHIFT
G L1X  -.25000                                              SYS / PHASE SHIFT
G L2W   .00000                                              SYS / PHASE SHIFT
G L2X   .25000                                              SYS / PHASE SHIFT
G L5X   .25000                                              SYS / PHASE SHIFT
R L1C   .00000                                              SYS / PHASE SHIFT
R L1P  -.25000                                              SYS / PHASE SHIFT
R L2C   .25000                                              SYS / PHASE SHIFT
R L2P   .00000                                              SYS / PHASE SHIFT
R L3X   .25000                                              SYS / PHASE SHIFT
E L1X   .50000                                              SYS / PHASE SHIFT
E L5X   .25000                                              SYS / PHASE SHIFT
E L6X   .50000                                              SYS / PHASE SHIFT
E L7X   .25000                                              SYS / PHASE SHIFT
E L8X   .25000                                              SYS / PHASE SHIFT
S L1C   .00000                                              SYS / PHASE SHIFT
S L5I   .25000                                              SYS / PHASE SHIFT
C L1X   .00000                                              SYS / PHASE SHIFT
C L2I   .00000                                              SYS / PHASE SHIFT
C L5X   .25000                                              SYS / PHASE SHIFT
C L6I   .00000                                              SYS / PHASE SHIFT
C L7I   .00000                                              SYS / PHASE SHIFT
C L7Z   .25000                                              SYS / PHASE SHIFT
C L8X   .25000                                              SYS / PHASE SHIFT
I L5A   .00000                                              SYS / PHASE SHIFT
                                                            GLONASS COD/PHS/BIS
 24 R01  1 R02 -4 R03  5 R04  6 R05  1 R06 -4 R07  5 R08  6 GLONASS SLOT / FRQ #
    R09 -2 R10 -7 R11  0 R12 -1 R13 -2 R14 -7 R15  0 R16 -1 GLONASS SLOT / FRQ #
    R17  4 R18 -3 R19  3 R20  2 R21  4 R23  3 R24  2 R26 -6 GLONASS SLOT / FRQ #
    30.000                                                  INTERVAL
  2020     6    25     0     0    0.0000000     GPS         TIME OF FIRST OBS
  2020     6    25     0    59   30.0000000     GPS         TIME OF LAST OBS
    18                                                      LEAP SECONDS
     0                                                      RCV CLOCK OFFS APPL
                                                            END OF HEADER
> 2020  6 25  0  0  0.0000000  0 52
S44  40948493.764                   215185837.448 6                        93.456                          41.250
C23  23480997.465    23480999.229    23480991.525    23480988.194                    23480990.871    23480990.741   123393431.324 8 122271742.560 8  92144508.074 9  99355813.971 8                  94548268.941 9  93346382.405 9     -2182.444       -2162.634       -1629.749       -1757.339                       -1672.265       -1651.016          51.000          51.750          54.000          52.000                          54.250          56.750
R10  20362708.189    20362706.735                                                   108544802.772 8 108544706.784 8                                                     -2609.210       -2609.210                                                          52.250          51.000
C40  38261884.443    38261886.498    38261882.620    38261882.257                    38261882.405    38261882.065   201067678.896 7 199239690.071 8 150147889.426 8 161898574.575 8                 154064792.282 8 152106352.748 8      -290.693        -287.900        -217.002        -234.000                        -222.641        -219.833          47.500          48.750          50.250          48.500                          50.750          53.250
R17  23949726.322    23949726.546    23949727.030    23949727.106                   128159650.873 8 128159781.863 7  99679868.670 6  99679865.660 6                     -2860.130       -2860.130       -2224.540       -2224.536                          49.000          47.750          41.500          40.000
S36  38389593.798    38389597.138   201740001.239 7 150648973.485 8        -1.084           -.716          47.250          48.750
E04  28488078.261    28488078.220    28488077.945    28488077.296    28488077.166   149705914.317 6 111793392.722 7 121514547.874 6 114709742.170 7 113251566.585 7     -2708.151       -2022.343       -2198.185       -2075.099       -2048.706          41.750          43.500          41.000          45.000          47.250
E31  24366150.473    24366151.567    24366148.348    24366150.643    24366150.422   128045212.088 8  95618042.530 9 103932651.037 8  98112423.961 9  96865234.885 9      -559.147        -417.526        -453.844        -428.425        -422.979          51.750          54.000          51.500          55.250          57.500
E15  27439364.462    27439366.252    27439363.409    27439364.966    27439364.946   144194867.915 7 107677965.197 7 117041266.952 7 110486956.111 7 109082460.288 8      -980.904        -732.519        -796.193        -751.605        -742.062          44.250          44.500          42.000          46.000          48.000
S27  39499976.789                   207573748.243 6                         -.933                          38.750
G13  21925231.166    21925230.613                    21925228.667                                   115217905.184 8 115217896.191 6                  89780186.369 6                                      2541.717        2541.717                        1980.547                                          49.500          38.750                          38.750
G15  24448735.428    24448735.472                    24448732.671    24448733.088                   128478825.93817 128478977.949 4                 100113491.005 4 100113492.00516                      3488.658        3488.658                        2718.363        2718.361                          42.000          29.000                          29.000          40.000
G28  22651619.556    22651618.978                    22651617.008                                   119035086.689 7 119035071.701 5                  92754602.791 5                                      3002.791        3002.791                        2339.866                                          45.500          34.500                          34.500
G18  24786468.728    24786469.040    24786468.628    24786468.009    24786467.397    24786470.371   130253778.485 7 130253772.465 4 130253820.465 7 101496447.339 4 101496444.335 7  97267424.386 7      1295.648        1295.648        1295.712        1009.632        1009.625         967.567          43.000          27.250          43.750          27.250          43.500          46.000
R12  23112328.598    23112328.860    23112330.603    23112330.078                   123461919.079 8 123461927.075 8  96025936.801 7  96025951.804 7                      4312.703        4312.703        3354.328        3354.331                          50.000          49.250          43.000          42.250
C19  24265920.098    24265923.109    24265919.581    24265915.336                    24265919.105    24265918.824   127518275.618 7 126359125.678 8  95224722.023 8 102677063.940 8                  97708834.629 8  96466798.219 8      2777.922        2752.624        2074.428        2236.698                        2128.494        2101.469          47.250          49.000          49.750          48.000                          50.250          53.000
C32  23806175.467    23806176.470    23806178.311    23806175.428                    23806177.657    23806177.467   125102283.167 8 123965214.691 8  93420612.070 8 100731781.378 8                  95857659.575 8  94639128.220 9     -2741.969       -2717.093       -2047.631       -2207.890                       -2101.046       -2074.355          50.250          50.750          52.750          50.250                          53.000          55.750
E24  22995787.199    22995798.775    22995779.030    22995797.635    22995797.486   120843675.754 8  90240420.772 8  98087412.459 8  92594517.052 9  91417468.051 9      2254.126        1683.264        1829.640        1727.174        1705.218          50.750          53.250          51.250          54.750          56.750
R11  19720204.851    19720205.475    19720205.631    19720206.043                   105378820.191 9 105378839.196 8  81961303.781 8  81961305.784 8                      2001.003        2001.003        1556.340        1556.345                          54.250          53.500          49.000          49.000
C37  22063378.800    22063379.827    22063382.031    22063380.330                    22063381.652    22063381.368   115943873.867 8 114889809.091 8  86581483.089 9  93357402.910 8                  88840121.128 9  87710794.502 9       860.216         852.392         642.387         692.642                         659.158         650.777          50.250          51.250          56.500          53.750                          56.750          59.500
C20  22020222.648    22020224.981    22020218.773    22020214.447                    22020218.359    22020218.103   115717087.933 8 114665131.828 8  86412122.413 9  93174778.946 8                  88666355.788 9  87539256.494 9       179.019         177.405         133.676         144.167                         137.185         135.446          51.000          52.000          56.000          53.250                          56.750          59.000
R19  24530467.289    24530464.526    24530466.564    24530466.074                   131221457.165 6 131221453.167 6 102061128.467 6 102061123.469 6                      2674.299        2674.299        2080.004        2079.998                          38.250          37.500          38.250          37.000
R01  19195433.850    19195433.913    19195434.827    19195435.808                   102610596.545 8 102610631.555 8  79808284.456 7  79808285.469 7                       218.119         218.119         169.628         169.622                          50.250          49.750          44.750          44.000
G09  24000343.980    24000344.140                    24000344.631    24000344.827    24000343.638   126122713.816 7 126122704.820 7                  98277444.934 7  98277446.935 7  94182556.352 8     -3188.193       -3188.193                       -2484.316       -2484.310       -2380.805          44.500          42.750                          42.750          44.000          49.500
G27  25111277.178    25111278.868                    25111279.081    25111278.302    25111276.814   131960664.592 6 131960663.603 5                 102826492.162 5 102826495.170 6  98542055.942 7       102.915         102.915                          80.324          80.286          76.958          40.750          33.750                          33.750          40.500          45.250
G05  20796901.256    20796901.133                    20796898.522    20796898.590                   109288487.431 8 109288486.429 8                  85159866.572 8  85159862.577 8                      -485.005        -485.005                        -377.947        -377.940                          50.000          51.000                          51.000          50.500
G30  20424563.054    20424562.820                    20424563.782    20424563.600    20424561.847   107331843.407 8 107331839.410 8                  83635209.116 8  83635217.117 8  80150411.413 9      -136.703        -136.703                        -106.540        -106.535        -102.098          51.000          52.500                          52.500          52.750          58.000
R02  22497304.295    22497304.574    22497304.836    22497304.128                   120049957.41618 120049951.411 8  93372214.203 7  93372179.206 7                      3831.763        3831.763        2980.294        2980.310                          51.750          51.250          44.750          43.500
E09  22301210.167    22301210.253    22301209.081    22301208.835    22301208.803   117193708.358 8  87514793.979 9  95124768.749 8  89797785.644 9  88656282.450 9     -1468.736       -1096.788       -1192.153       -1125.400       -1111.092          52.750          54.500          52.250          55.500          58.000
G08  24970537.341    24970536.947                    24970538.362    24970538.902    24970536.233   131221066.889 6 131221067.888 5                 102250184.005 5 102250182.995 6  97989757.256 7      1534.890        1534.890                        1195.990        1195.988        1146.177          38.250          35.250                          35.250          39.750          44.750
C12                  26871317.832                    26871314.010    26871314.828                                                   139925840.907 4                 113701291.282 4 108199649.542 5                                                       397.479                         324.332         307.753                                                          29.250                          28.250          32.500
S25  39870920.720                   209522187.314 7                      -201.849                          45.000
E05  23809512.654    23809513.252    23809510.535    23809511.953    23809511.894   125119844.143 8  93433692.985 9 101558357.434 8  95871090.874 9  94652392.565 9      1074.561         802.440         872.217         823.371         812.910          52.250          55.250          52.250          56.000          58.500
S26  40230924.664                   211414995.130 6                        66.841                          39.500
R08  20755563.273    20755562.482    20755563.214    20755563.388                   111145229.714 8 111145142.713 8  86446234.257 8  86446265.252 8                     -2816.674       -2816.674       -2190.750       -2190.746                          52.250          51.500          49.250          48.250
R18  23481735.287    23481735.868    23481737.157    23481735.666                   125347108.010 8 125347092.015 7  97492192.409 6  97492179.390 6                      -143.517        -143.517        -111.618        -111.601                          48.750          47.750          41.500          40.000
C10                  38256014.675                    38256009.005    38256010.747                                                   199209116.482 7                 161873773.517 7 154041159.800 7                                                        96.499                          78.441          74.601                                                          45.000                          46.000          46.500
S23  38593458.833    38593459.153   202810496.322 7 151448887.798 7         3.218           2.384          46.250          47.500
E03  27506102.068    27506102.570    27506100.341    27506101.567    27506101.484   144545564.51517 107939876.70517 117325947.74817 110755693.50617 109347779.73918      2638.584        1970.369        2141.708        2021.763        1996.070          46.000          45.000          43.250          47.000          49.000
E25  28635429.473    28635430.736    28635428.516    28635429.566    28635429.370   150480201.984 6 112371582.282 6 122143022.498 5 115303015.360 5 113837301.460 6      3265.307        2438.463        2650.453        2502.012        2470.232          40.000          38.750          34.500          34.250          41.000
C07                  39680320.302                    39680311.923    39680313.717                                                   206625757.789 7                 167900440.501 7 159776229.935 7                                                      -567.276                        -460.866        -438.550                                                          43.250                          42.500          43.500
G07  21697283.687    21697283.630                    21697281.268    21697281.249                   114020037.177 8 114020042.179 8                  88846798.885 8  88846795.886 8                     -1922.847       -1922.847                       -1498.316       -1498.322                          50.000          50.750                          50.750          48.750
C05                  39982984.913                    39982982.352    39982980.062                                                   208201912.382 6                 169181096.057 7 160994899.381 7                                                        -2.291                          -1.859          -1.726                                                          41.500                          42.250          43.500
S28  41262466.434    41262472.847   216835788.711 6 161922791.710 6         1.282           0.954          38.500          40.250
E01  27894203.499    27894203.723    27894203.371    27894202.478    27894202.290   146585155.590 7 109462883.004 7 118981392.808 7 112318436.999 7 110890657.138 7     -2746.765       -2051.187       -2229.558       -2104.685       -2077.928          46.250          44.000          42.250          45.250          47.250
R09  23380506.447    23380506.177    23380506.382    23380505.799    23380492.269   124850867.253 8 124850684.259 7  97106225.728 7  97106097.730 7  93744773.629 7     -4139.249       -4139.249       -3219.396       -3219.428       -3107.974          48.000          47.250          43.250          42.000          44.750
I04  41209152.987   161713563.89316      -328.204          37.500
I09  41063524.654   161142131.389 5      -642.980          34.250
I03  41441676.385   162626076.567 7       -45.738          42.250
I02  37518126.565   147229245.789 7       341.175          42.250
I06  38313473.351   150350158.519 6        27.027          41.750
C02                                                                                                                                                                                                                                                                                                         0.951                                                                                                          31.250
> 2020  6 25  0  0 30.0000000  0 52
S44  40947961.076                   215183036.766 6                        93.010                          40.000
C23  23493484.840    23493487.107    23493479.039    23493475.652                    23493478.218    23493478.174   123459053.423 8 122336768.092 8  92193511.591 9  99408652.546 8                  94598550.809 9  93396025.098 9     -2192.361       -2172.441       -1637.148       -1765.294                       -1679.856       -1658.517          50.500          51.500          54.000          52.000                          54.250          56.500
R10  20377441.485    20377442.183                                                   108623351.137 8 108623255.159 8                                                     -2627.400       -2627.400                                                          51.250          50.750
C40  38263558.559    38263561.112    38263557.277    38263556.689                    38263556.891    38263556.675   201076478.786 7 199248409.981 8 150154460.792 8 161905660.210 8                 154071535.072 8 152113009.827 8      -296.119        -293.419        -221.123        -238.382                        -226.847        -224.003          47.250          48.500          50.000          48.500                          50.750          53.000
R17  23965802.930    23965803.795    23965803.753    23965805.027                   128245687.755 7 128245818.750 7  99746786.245 6  99746783.246 6                     -2875.721       -2875.721       -2236.675       -2236.702                          47.000          45.750          40.500          39.500
S36  38389599.170    38389601.931   201740028.903 7 150648989.441 8         -.854           -.659          46.000          49.000
E04  28503544.300    28503544.931    28503543.800    28503543.864    28503543.749   149787192.217 7 111854087.303 7 121580520.231 6 114772020.071 7 113313052.824 7     -2710.413       -2024.074       -2200.073       -2076.865       -2050.469          42.750          43.500          40.500          44.500          46.750
E31  24369382.183    24369383.318    24369380.135    24369382.214    24369382.130   128062194.779 8  95630724.413 8 103946435.691 8  98125436.677 9  96878082.182 9      -573.057        -427.941        -465.158        -439.111        -433.521          52.000          53.750          51.500          55.250          57.250
E15  27445002.702    27445004.787    27445002.154    27445003.561    27445003.496   144224498.481 7 107700091.921 7 117065317.752 6 110509660.072 7 109104875.639 8      -994.594        -742.721        -807.325        -762.124        -752.427          44.750          44.000          41.750          46.000          48.000
S27  39499981.659                   207573782.038 6                        -1.108                          37.500
G13  21910742.116    21910741.235                    21910739.386                                   115141762.283 8 115141753.291 6                  89720854.247 6                                      2534.464        2534.464                        1974.888                                          49.500          38.250                          38.250
G15  24428826.350    24428826.288                    24428824.307    24428824.509                   128374200.502 7 128374352.484 5                 100031964.724 5 100031965.721 6                      3486.286        3486.286                        2716.607        2716.587                          42.750          30.500                          30.500          40.750
G28  22634505.063    22634505.078                    22634502.174                                   118945148.315 7 118945133.316 6                  92684520.954 6                                      2993.048        2993.048                        2332.264                                          47.000          36.000                          36.000
G18  24779122.998    24779122.789    24779122.519    24779121.075    24779122.166    24779124.418   130215174.436 7 130215168.427 4 130215216.422 7 101466366.285 4 101466363.279 7  97238596.716 7      1277.954        1277.954        1277.926         995.863         995.840         954.339          42.250          26.500          43.500          26.500          42.500          45.500
R12  23088127.040    23088126.740    23088129.059    23088127.312                   123332635.715 8 123332643.719 8  95925383.107 7  95925398.110 6                      4306.235        4306.235        3349.289        3349.262                          50.000          49.250          42.250          41.250
C19  24250080.668    24250083.241    24250079.719    24250075.649                    24250079.220    24250078.991   127435036.675 7 126276643.471 7  95162563.091 8 102610040.391 8                  97645054.161 8  96403828.521 8      2771.364        2746.144        2069.523        2231.479                        2123.493        2096.515          47.250          47.750          50.000          48.500                          50.250          52.750
C32  23821854.956    23821856.678    23821857.761    23821855.007                    23821857.029    23821856.925   125184679.346 8 124046861.802 8  93482141.673 8 100798126.348 8                  95920794.296 8  94701460.379 9     -2751.017       -2726.059       -2054.376       -2215.171                       -2107.981       -2081.174          50.000          51.750          52.250          50.750                          52.750          55.250
E24  22982948.737    22982960.362    22982940.701    22982959.077    22982958.964   120776208.680 8  90190039.530 8  98032650.236 8  92542821.516 9  91366429.660 9      2243.627        1675.456        1821.149        1719.161        1697.311          51.500          53.500          51.000          54.750          57.000
R11  19709034.439    19709034.014    19709034.579    19709034.257                   105319123.318 9 105319142.318 8  81914872.886 8  81914874.894 8                      1978.772        1978.772        1539.057        1539.037                          54.250          53.500          49.000          49.000
C37  22058509.629    22058511.085    22058512.804    22058511.197                    22058512.439    22058512.200   115918286.194 8 114864454.027 8  86562375.426 9  93336799.859 8                  88820515.002 9  87691437.607 9       845.644         837.956         631.476         680.884                         647.944         639.716          51.500          51.750          56.250          53.750                          56.750          59.250
C20  22019243.224    22019245.224    22019239.040    22019234.808                    22019238.632    22019238.483   115711939.902 8 114660030.594 8  86408278.102 9  93170633.783 8                  88662411.197 9  87535362.043 9       164.177         162.646         122.617         132.160                         125.779         124.206          51.000          52.000          55.750          53.500                          56.750          59.250
R19  24515517.884    24515517.088    24515518.299    24515517.987                   131141494.484 6 131141490.500 6 101998935.301 6 101998930.306 6                      2656.443        2656.443        2066.171        2066.213                          38.750          38.750          38.750          37.750
R01  19194268.678    19194268.859    19194271.032    19194270.671                   102604369.214 8 102604404.215 8  79803440.968 7  79803441.978 7                       197.136         197.136         153.300         153.317                          50.500          49.250          45.250          44.000
G09  24018556.932    24018557.458                    24018558.215    24018557.813    24018556.926   126218425.679 7 126218416.679 7                  98352025.589 7  98352027.587 7  94254029.475 8     -3192.590       -3192.590                       -2487.775       -2487.775       -2384.134          43.250          42.750                          42.750          44.250          49.000
G27  25110746.809    25110746.278                    25110746.077    25110745.768    25110744.263   131957867.092 6 131957866.088 5                 102824312.289 5 102824315.280 6  98539966.893 7        83.729          83.729                          65.224          65.206          62.503          41.250          33.500                          33.500          39.500          45.500
G05  20799727.186    20799727.281                    20799724.700    20799724.589                   109303338.763 8 109303337.773 8                  85171439.047 8  85171435.055 8                      -505.089        -505.089                        -393.566        -393.565                          49.750          50.750                          50.750          50.750
G30  20425386.672    20425386.096                    20425386.912    20425387.008    20425385.039   107336169.398 8 107336165.402 8                  83638580.023 8  83638588.022 8  80153641.865 9      -151.730        -151.730                        -118.202        -118.205        -113.277          51.250          52.250                          52.250          52.750          58.000
R02  22475770.993    22475771.624    22475771.953    22475772.827                   119935059.623 8 119935053.617 8  93282849.288 7  93282814.291 7                      3828.052        3828.052        2977.366        2977.361                          49.750          49.500          45.750          44.500
E09  22309617.802    22309618.104    22309617.133    22309616.711    22309616.680   117237891.969 8  87547788.227 9  95160632.067 8  89831640.617 9  88689707.061 9     -1476.847       -1102.847       -1198.751       -1131.627       -1117.235          53.000          54.500          52.500          55.250          58.000
G08  24961818.960    24961818.115                    24961820.111    24961820.182    24961817.563   131175248.105 6 131175249.086 6                 102214481.102 6 102214480.102 6  97955541.976 7      1519.654        1519.654                        1184.236        1184.261        1134.889          38.000          36.750                          36.750          41.000          46.250
C12                  26869072.873                    26869068.507                                                                   139914145.521 4                 113691788.621 4                                                                       381.604                         310.292                                                                          27.250                          25.750
S25  39872095.827                   209528232.471 7                      -201.596                          45.250
E05  23803400.392    23803400.806    23803398.000    23803399.536    23803399.476   125087723.103 8  93409706.497 9 101532285.167 8  95846478.654 9  94628093.210 9      1066.817         796.650         865.919         817.427         807.045          52.500          55.250          52.250          56.000          58.500
S26  40230541.116                   211412976.939 6                        67.518                          39.500
R08  20771384.971    20771385.083    20771385.774    20771386.086                   111229959.289 8 111229872.303 8  86512135.040 8  86512166.036 8                     -2831.905       -2831.905       -2202.609       -2202.605                          51.750          51.250          49.750          48.500
R18  23482613.681    23482614.311    23482615.051    23482615.748                   125351800.249 7 125351784.251 7  97495841.932 7  97495828.922 6                      -169.347        -169.347        -131.679        -131.681                          47.750          47.500          42.250          41.250
C10                  38255471.050                    38255466.187    38255467.791                                                   199206290.150 7                 161871476.901 7 154038974.311 7                                                        91.905                          74.630          71.046                                                          44.250                          45.750          46.500
S23  38593439.871    38593440.454   202810397.556 7 151448813.949 7         3.262           2.435          46.750          47.750
E03  27491041.134    27491042.047    27491039.491    27491040.649    27491040.548   144466419.569 7 107880774.991 7 117261706.745 7 110695050.000 7 109287907.129 8      2637.751        1969.699        2140.973        2021.082        1995.397          46.750          45.750          43.000          46.750          49.250
E25  28616788.559    28616790.045    28616786.619    28616788.026    28616788.285   150382241.654 6 112298430.159 6 122063509.255 6 115227954.886 5 113763195.138 6      3265.321        2438.319        2650.395        2501.920        2470.127          41.750          38.750          36.500          35.000          41.000
C07                  39683598.746                    39683590.102    39683591.188                                                   206642826.187 7                 167914309.988 7 159789428.307 7                                                      -570.720                        -463.815        -441.342                                                          44.000                          42.500          43.750
G07  21708288.415    21708288.538                    21708286.094    21708285.784                   114077868.152 8 114077873.154 8                  88891861.978 8  88891858.981 8                     -1932.610       -1932.610                       -1505.938       -1505.936                          49.500          50.500                          50.500          48.750
C05                  39982997.954                    39982994.581    39982993.613                                                   208201977.314 6                 169181148.818 7 160994949.580 7                                                        -2.116                          -1.706          -1.604                                                          41.000                          42.000          43.750
S28  41262460.230    41262466.042   216835750.776 6 161922763.717 6         1.541           1.103          39.500          40.750
E01  27909900.484    27909899.520    27909899.445    27909898.823    27909898.571   146667640.002 7 109524478.499 7 119048344.415 7 112381639.327 7 110953056.054 7     -2752.300       -2055.336       -2234.010       -2108.931       -2082.120          46.000          43.500          42.500          45.250          47.250
R09  23403773.071    23403772.492    23403772.434    23403772.149    23403759.263   124975110.751 7 124974927.754 7  97202859.530 6  97202731.544 6  93838062.464 7     -4143.788       -4143.788       -3222.898       -3222.947       -3111.402          47.500          47.500          41.000          41.000          44.500
I04  41211666.447   161723426.330 6      -329.344          37.250
I09  41068437.023   161161410.881 5      -641.975          35.000
I03  41442025.162   162627444.627 7       -45.643          42.750
I02  37515523.352   147219034.359 7       339.698          42.500
I06  38313265.769   150349347.677 7        26.982          42.000
C02                                                                                                                                                                                                                                                                                                         1.652                                                                                                          31.000
> 2020  6 25  0  1  0.0000000  0 53
E13  28595849.164                    28595848.214    28595846.960                   150272223.47614                 121974185.318 4 115143634.362 4                      1256.019                        1019.620         962.559                          26.500                          29.250          24.250
S44  40947429.161                   215180238.968 6                        93.262                          40.000
C23  23506028.798    23506030.928    23506022.988    23506019.700                    23506022.239    23506022.177   123524972.398 8 122402087.814 8  92242736.806 8  99461730.171 8                  94649060.161 9  93445892.381 9     -2202.208       -2182.211       -1644.521       -1773.221                       -1687.415       -1665.982          50.500          51.500          53.750          51.750                          54.000          56.500
R10  20392279.733    20392279.312                                                   108702443.022 8 108702347.033 8                                                     -2645.416       -2645.416                                                          51.500          50.500
C40  38265265.075    38265266.750    38265263.355    38265262.630                    38265262.990    38265262.705   201085444.003 7 199257293.687 8 150161155.598 8 161912878.963 8                 154078404.525 8 152119791.951 8      -301.661        -298.895        -225.259        -242.850                        -231.110        -228.169          47.000          48.750          50.000          48.750                          50.500          53.250
R17  23981968.851    23981969.374    23981970.250    23981970.007                   128332190.387 7 128332321.394 7  99814066.063 6  99814063.063 6                     -2891.089       -2891.089       -2248.652       -2248.664                          45.500          45.250          39.500          38.500
S36  38389603.627    38389606.946   201740054.407 7 150649009.002 8         -.705           -.535          46.750          49.000
E04  28519023.160    28519023.714    28519022.916    28519022.346    28519022.324   149868532.696 7 111914828.565 7 121646543.339 6 114834345.898 7 113374586.368 7     -2712.465       -2025.493       -2201.597       -2078.322       -2051.898          43.000          44.250          41.750          45.250          47.500
E31  24372693.612    24372694.413    24372691.246    24372693.543    24372693.278   128079594.956 8  95643718.058 8 103960559.211 8  98138769.283 9  96891245.309 9      -587.012        -438.368        -476.477        -449.809        -444.089          52.250          53.500          51.500          55.250          57.250
E15  27450719.460    27450721.186    27450719.428    27450720.213    27450720.125   144254540.100 7 107722525.610 7 117089702.185 7 110532678.974 7 109127601.933 8     -1008.203        -752.844        -818.307        -772.472        -762.654          44.750          44.000          43.000          46.250          48.000
S27  39499987.128                   207573816.892 6                        -1.499                          38.750
G13  21896294.101    21896293.931                    21896291.830                                   115065839.526 8 115065830.530 6                  89661693.668 6                                      2527.086        2527.086                        1969.169                                          49.750          38.750                          38.750
G15  24408928.421    24408928.483                    24408926.474    24408926.311                   128269640.447 6 128269792.446 4                  99950489.361 4  99950490.365 6                      3484.401        3484.401                        2715.085        2715.131                          41.250          29.500                          29.500          40.000
G28  22617445.763    22617444.975                    22617443.213                                   118855502.405 7 118855487.414 5                  92614666.983 5                                      2983.251        2983.251                        2324.659                                          46.500          35.000                          35.000
G18  24771877.274    24771877.833    24771877.799    24771876.705    24771876.423    24771879.330   130177102.529 7 130177096.546 4 130177144.526 7 101436699.887 4 101436696.910 7  97210166.446 7      1260.098        1260.098        1260.194         981.950         981.896         940.981          42.250          28.250          43.250          28.250          42.250          45.500
R12  23063960.949    23063961.121    23063962.036    23063962.819                   123203548.486 8 123203556.479 8  95824981.992 7  95824996.993 7                      4299.628        4299.628        3344.143        3344.145                          49.250          48.750          43.500          42.750
C19  24234278.463    24234281.011    24234277.568    24234273.443                    24234277.039    24234276.823   127351995.510 8 126194357.223 8  95100551.846 8 102543176.090 8                  97581425.231 8  96341008.431 8      2764.726        2739.518        2064.577        2226.154                        2118.404        2091.498          48.000          48.250          49.750          48.250                          50.250          52.750
C32  23837586.182    23837586.593    23837588.726    23837586.244                    23837588.159    23837587.986   125267346.637 8 124128777.588 8  93543873.735 8 100864689.614 8                  95984136.760 8  94763997.645 9     -2760.074       -2734.970       -2061.114       -2222.447                       -2114.882       -2088.003          51.250          49.500          52.250          51.000                          53.000          55.500
E24  22970170.207    22970181.577    22970162.035    22970180.300    22970180.169   120709055.813 8  90139892.915 8  97978143.047 8  92491366.730 9  91315628.960 9      2233.158        1667.625        1812.630        1711.122        1689.377          50.750          53.500          51.500          54.750          57.000
R11  19697987.345    19697987.688    19697988.021    19697987.929                   105260094.203 9 105260113.208 8  81868961.383 8  81868963.383 8                      1956.540        1956.540        1521.728        1521.745                          54.750          53.500          49.000          48.750
C37  22053724.042    22053725.209    22053727.133    22053725.577                    22053726.821    22053726.534   115893137.418 8 114839533.891 8  86543595.502 9  93316550.198 8                  88801245.166 9  87672412.728 9       831.007         823.416         620.559         669.110                         636.733         628.646          51.500          51.500          56.000          53.750                          57.000          59.250
C20  22018348.241    22018350.749    22018344.354    22018340.104                    22018343.960    22018343.734   115707238.150 8 114655371.584 8  86404767.054 9  93166847.951 8                  88658808.555 9  87531805.198 9       149.286         147.941         111.487         120.225                         114.384         112.946          51.000          52.250          56.000          53.250                          56.750          59.000
R19  24500671.360    24500670.960    24500670.367    24500670.008                   131062071.620 6 131062067.627 6 101937161.993 6 101937157.004 6                      2638.460        2638.460        2052.148        2052.123                          39.000          38.750          38.500          37.000
R01  19193222.391    19193222.114    19193223.588    19193223.692                   102598771.339 8 102598806.346 8  79799087.073 7  79799088.079 7                       176.096         176.096         136.929         136.944                          50.250          49.750          45.000          43.500
G09  24036796.207    24036795.673                    24036796.382    24036795.960    24036795.199   126314268.385 7 126314259.383 7                  98426708.196 7  98426710.194 7  94325600.304 8     -3196.917       -3196.917                       -2491.135       -2491.131       -2387.345          43.750          42.000                          42.000          44.000          49.000
G27  25110324.358    25110323.864                    25110324.361    25110324.276    25110322.855   131955650.567 6 131955649.592 5                 102822585.116 5 102822588.113 6  98538311.699 7        64.197          64.197                          49.996          49.976          47.900          39.500          32.500                          32.500          39.500          45.000
G05  20802667.671    20802667.698                    20802665.160    20802664.942                   109318790.868 8 109318789.875 8                  85183479.643 8  85183475.651 8                      -525.128        -525.128                        -409.249        -409.254                          49.750          50.750                          50.750          50.250
G30  20426295.688    20426295.142                    20426296.062    20426296.009    20426294.061   107340946.699 8 107340942.697 8                  83642302.597 8  83642310.596 8  80157209.331 9      -166.729        -166.729                        -129.911        -129.913        -124.501          52.000          52.250                          52.250          52.750          58.000
R02  22454262.067    22454262.162    22454262.012    22454262.342                   119820276.959 8 119820270.957 8  93193573.923 7  93193538.926 7                      3824.178        3824.178        2974.356        2974.347                          51.500          50.750          44.500          43.750
E09  22318071.975    22318072.158    22318071.089    22318070.850    22318070.767   117282318.368 8  87580963.779 9  95196692.452 8  89865681.616 9  88723315.336 9     -1484.898       -1108.862       -1205.284       -1137.783       -1123.323          52.750          54.500          52.500          55.250          57.750
G08  24953184.824    24953184.599                    24953185.993    24953186.719    24953183.611   131129880.406 6 131129881.417 5                 102179129.690 5 102179128.694 6  97921663.559 7      1504.687        1504.687                        1172.537        1172.537        1123.681          38.250          32.500                          32.500          39.750          45.000
S25  39873270.483                   209534284.503 7                      -201.505                          45.500
E05  23797332.117    23797332.664    23797329.754    23797331.364    23797331.310   125055834.684 8  93385893.716 9 101506401.705 8  95822044.668 9  94603969.827 9      1059.087         790.886         859.658         811.515         801.206          52.000          55.000          52.250          56.000          58.500
S26  40230155.306                   211410953.170 6                        67.607                          37.750
R08  20787293.752    20787293.555    20787294.264    20787294.159                   111315146.720 8 111315059.731 8  86578391.919 8  86578422.917 8                     -2847.212       -2847.212       -2214.506       -2214.501                          51.750          51.250          49.250          48.500
R18  23483640.327    23483639.419    23483639.013    23483640.172                   125357269.287 8 125357253.293 7  97500095.644 6  97500082.638 6                      -195.229        -195.229        -151.840        -151.822                          48.750          47.750          41.750          41.750
C10                  38254954.085                    38254949.677    38254951.235                                                   199203600.658 7                 161869291.479 7 154036894.617 7                                                        87.431                          70.952          67.543                                                          44.250                          46.000          46.750
S23  38593420.015    38593421.430   202810299.391 7 151448741.021 7         3.294           2.457          47.250          47.500
E03  27475985.230    27475985.699    27475983.043    27475984.470    27475984.437   144387299.589 7 107821691.918 7 117197485.997 7 110634425.613 7 109228053.401 8      2636.939        1969.137        2140.364        2020.504        1994.823          46.000          45.500          42.250          46.250          48.750
E25  28598148.016    28598149.195    28598145.910    28598147.047    28598147.362   150284282.659 7 112225278.942 6 121983997.083 6 115152895.356 6 113689089.783 7      3265.227        2438.285        2650.354        2501.930        2470.124          43.000          39.750          38.500          41.000          42.500
C07                  39686897.654                    39686888.382    39686890.428                                                   206660002.758 7                 167928267.359 6 159802710.310 7                                                      -574.364                        -466.693        -444.156                                                          43.750                          41.500          43.750
G07  21719348.984    21719348.726                    21719346.345    21719346.112                   114135990.103 8 114135995.105 8                  88937151.805 8  88937148.811 8                     -1942.274       -1942.274                       -1513.459       -1513.466                          49.500          50.000                          50.000          48.750
C05                  39983010.183                    39983006.739    39983004.430                                                   208202039.258 6                 169181199.171 7 160994997.506 7                                                        -1.953                          -1.611          -1.593                                                          41.000                          42.000          43.750
S28  41262452.280    41262459.019   216835714.211 6 161922736.017 6         0.962           0.810          39.500          40.250
E01  27925627.445    27925627.423    27925627.208    27925626.150    27925626.099   146750288.729 7 109586196.669 7 119115429.401 6 112444967.541 7 111015579.246 7     -2757.590       -2059.255       -2238.301       -2112.960       -2086.109          45.250          43.500          41.750          44.500          47.000
R09  23427063.691    23427064.455    23427063.686    23427064.128    23427051.169   125099488.913 8 125099305.912 7  97299598.119 6  97299470.100 6  93931452.409 7     -4148.200       -4148.200       -3226.375       -3226.372       -3114.689          48.250          46.500          41.750          40.500          43.750
I09  41073346.601   161180676.825 5      -641.908          35.250
I03  41442372.298   162628811.150 7       -45.600          42.500
I02  37512933.546   147208869.230 7       338.066          42.250
I04  41214189.913   161733337.12816      -330.452          36.500
I06  38313061.091   150348540.177 6        26.841          41.750
C02                                                                                                                                                                                                                                                                                                         1.448                                                                                                          30.250
C12                                                                                                                                                                                                                                                                                                       282.408                                                                                                          28.250
> 2020  6 25  0  1 30.0000000  0 52
S44  40946897.522                   215177444.172 6                        93.120                          41.000
C23  23518629.051    23518630.943    23518622.965    23518619.800                    23518622.429    23518622.251   123591186.487 8 122467699.950 8  92292182.392 8  99515045.407 8                  94699795.625 9  93495982.905 9     -2212.030       -2191.973       -1651.861       -1781.123                       -1694.926       -1673.405          50.500          51.250          53.500          51.750                          54.250          56.500
R10  20407218.765    20407218.270                                                   108782074.864 8 108781978.874 8                                                     -2663.360       -2663.360                                                          52.000          51.000
C40  38267002.391    38267004.067    38267000.766    38267000.153                    38267000.358    38267000.119   201094574.123 7 199266340.811 8 150167973.556 8 161920230.499 8                 154085400.347 8 152126698.844 8      -307.160        -304.353        -229.303        -247.279                        -235.322        -232.323          47.250          48.750          49.750          48.750                          50.500          53.250
R17  23998219.454    23998220.144    23998222.233    23998220.917                   128419154.623 7 128419285.626 7  99881704.909 6  99881701.893 6                     -2906.471       -2906.471       -2260.669       -2260.603                          44.250          44.250          38.500          37.250
S36  38389608.526    38389611.838   201740075.009 7 150649033.369 7         -.519           -.505          46.750          45.000
E04  28534513.508    28534514.119    28534513.514    28534512.550    28534512.801   149949935.201 7 111975616.181 7 121712616.842 6 114896719.286 7 113436166.876 7     -2714.507       -2027.043       -2203.329       -2079.931       -2053.497          42.750          43.250          40.250          43.750          46.250
E31  24376083.828    24376084.873    24376081.341    24376083.937    24376083.708   128097411.801 8  95657022.848 8 103975020.943 8  98152421.155 9  96904723.637 9      -600.850        -448.686        -487.711        -460.392        -454.536          52.000          53.500          51.500          55.500          57.500
E15  27456513.986    27456516.204    27456513.893    27456515.086    27456514.873   144284991.718 7 107745265.481 7 117114419.439 7 110556012.063 7 109150638.413 8     -1021.873        -763.107        -829.478        -783.033        -773.077          44.250          44.250          43.000          46.250          48.500
S27  39499995.127                   207573851.572 6                        -1.230                          38.000
G13  21881888.746    21881888.248                    21881886.369                                   114990138.401 8 114990129.410 6                  89602705.790 6                                      2519.605        2519.605                        1963.359                                          49.750          38.750                          38.750
G15  24389044.928    24389043.828                    24389042.788    24389040.986                   128165147.132 7 128165299.121 4                  99869066.054 4  99869067.045 6                      3481.942        3481.942                        2713.296        2713.291                          42.000          29.250                          29.250          40.500
G28  22600443.053    22600442.297                    22600439.998                                   118766151.506 7 118766136.516 5                  92545042.923 5                                      2973.361        2973.361                        2316.926                                          45.750          34.250                          34.250
G18  24764734.742    24764734.243    24764735.099    24764733.867    24764734.036    24764735.531   130139564.012 7 130139558.015 4 130139606.028 7 101407449.140 4 101407446.121 7  97182134.452 7      1242.388        1242.388        1242.322         968.093         968.103         927.763          44.500          28.750          44.500          28.750          42.000          44.250
R12  23039833.390    23039832.955    23039834.592    23039833.736                   123074660.120 8 123074668.121 8  95724735.556 7  95724750.554 6                      4292.934        4292.934        3338.959        3338.967                          50.500          49.750          43.000          41.500
C19  24218513.882    24218516.391    24218513.255    24218509.096                    24218512.765    24218512.524   127269153.942 8 126112268.765 7  95038689.654 8 102476472.495 8                  97517949.233 8  96278339.337 8      2758.047        2732.928        2059.580        2220.748                        2113.347        2086.485          48.250          47.500          50.000          48.500                          50.250          52.750
C32  23853368.299    23853369.430    23853371.285    23853368.513                    23853370.617    23853370.425   125350283.796 8 124210960.759 8  93605807.308 8 100931470.176 8                  96047685.993 8  94826739.049 9     -2769.129       -2743.911       -2067.836       -2229.686                       -2121.727       -2094.782          49.250          51.000          52.500          50.250                          53.250          55.500
E24  22957451.187    22957462.729    22957443.031    22957461.508    22957461.414   120642218.361 8  90089981.837 8  97923891.868 8  92440153.622 9  91265066.868 9      2222.652        1659.790        1804.115        1703.086        1681.436          52.000          53.250          50.750          54.750          56.750
R11  19687066.136    19687066.502    19687066.856    19687066.499                   105201734.393 9 105201753.395 8  81823570.431 8  81823572.433 8                      1934.128        1934.128        1504.317        1504.306                          54.500          53.750          49.000          49.000
C37  22049021.898    22049023.039    22049025.049    22049023.433                    22049024.626    22049024.405   115868427.616 8 114815048.714 8  86525143.385 9  93296653.997 8                  88782311.688 9  87653719.928 9       816.341         808.923         609.602         657.318                         625.526         617.583          50.250          52.000          56.250          53.750                          57.000          59.500
C20  22017538.751    22017541.208    22017534.746    22017530.436                    22017534.330    22017534.121   115702983.421 8 114651155.540 8  86401589.828 9  93163422.068 8                  88655548.441 9  87528586.529 9       134.392         133.174         100.345         108.225                         102.981         101.670          51.250          52.250          55.750          53.250                          56.750          59.000
R19  24485925.299    24485923.812    24485922.900    24485925.430                   130983192.319 6 130983188.317 6 101875811.443 6 101875806.449 6                      2620.144        2620.144        2037.940        2037.953                          36.750          36.250          38.250          37.000
R01  19192292.284    19192292.506    19192293.704    19192294.219                   102593804.375 8 102593839.380 8  79795223.867 7  79795224.884 7                       155.007         155.007         120.538         120.527                          51.250          50.000          45.000          43.500
